     3.02           OBSERVATION DATA    G                   RINEX VERSION / TYPE
G = GPS  R = GLONASS  E = GALILEO  S = GEO  M = MIXED       COMMENT             
GNSS-SDR            tagsys-g1           20241227 031050 UTC PGM / RUN BY / DATE 
GPS OBSERVATION DATA FILE GENERATED BY GNSS-SDR             COMMENT             
GNSS-SDR VERSION 0.0.19.git-next-dc55847ae                  COMMENT             
See https://gnss-sdr.org                                    COMMENT             
DEFAULT MARKER NAME                                         MARKER NAME         
tagsys-g1           CTTC                                    OBSERVER / AGENCY   
GNSS-SDR            Software Receiver   0.0.19.gi           REC # / TYPE / VERS 
Antenna number      Antenna type                            ANT # / TYPE        
        0.0000        0.0000        0.0000                  APPROX POSITION XYZ 
        0.0000        0.0000        0.0000                  ANTENNA: DELTA H/E/N
G    4 C1C L1C D1C S1C                                      SYS / # / OBS TYPES 
DBHZ                                                        SIGNAL STRENGTH UNIT
  2024    12    27    02    42   42.1400000     GPS         TIME OF FIRST OBS   
                                                            END OF HEADER       
> 2024 12 27 02 42 43.0000000  0  4                                             
G29  27821155.454 6 146201164.043 6       295.097 6        39.126               
G31  25437440.388 7 133674639.569 7       199.994 7        42.169               
G26  24391861.009 6 128180093.571 6      1120.358 6        40.261               
G28  25781201.453 7 135481143.912 7      -613.660 7        42.186               
> 2024 12 27 02 42 44.0000000  0  4                                             
G29  27821100.310 6 146200877.047 6       283.886 6        39.052               
G31  25437398.699 7 133674433.746 7       204.415 7        42.291               
G26  24391651.691 6 128178975.151 6      1118.554 6        40.648               
G28  25781323.802 7 135481762.025 7      -620.054 7        42.324               
> 2024 12 27 02 42 45.0000000  0  4                                             
G29  27821048.829 6 146200590.562 6       281.585 6        39.252               
G31  25437357.958 7 133674228.072 7       206.473 7        42.082               
G26  24391437.942 6 128177857.316 6      1116.818 6        40.264               
G28  25781439.039 6 135482380.193 6      -616.987 6        41.651               
> 2024 12 27 02 42 46.0000000  0  4                                             
G29  27820990.612 6 146200304.563 6       282.146 6        39.178               
G31  25437322.452 7 133674022.537 7       203.014 7        42.311               
G26  24391223.728 6 128176740.082 6      1119.112 6        40.559               
G28  25781556.296 7 135482998.394 7      -614.731 7        42.391               
> 2024 12 27 02 42 47.0000000  0  4                                             
G29  27820939.471 6 146200019.053 6       283.489 6        39.182               
G31  25437284.034 7 133673817.132 7       202.511 7        42.338               
G26  24391009.925 6 128175623.414 6      1111.467 6        40.968               
G28  25781670.425 6 135483616.642 6      -619.307 6        41.801               
> 2024 12 27 02 42 48.0000000  0  4                                             
G29  27820882.826 6 146199734.046 6       289.977 6        39.923               
G31  25437244.758 7 133673611.870 7       208.040 7        42.197               
G26  24390800.536 6 128174507.316 6      1116.783 6        40.992               
G28  25781792.149 6 135484234.918 6      -614.696 6        41.552               
> 2024 12 27 02 42 49.0000000  0  4                                             
G29  27820829.129 6 146199449.500 6       284.756 6        39.961               
G31  25437207.751 7 133673406.732 7       206.660 7        42.293               
G26  24390588.716 6 128173391.794 6      1113.274 6        41.276               
G28  25781908.905 6 135484853.236 6      -619.000 6        41.261               
> 2024 12 27 02 42 50.0000000  0  4                                             
G29  27820771.252 6 146199165.463 6       284.747 6        39.608               
G31  25437166.170 7 133673201.745 7       202.824 7        42.639               
G26  24390378.076 6 128172276.869 6      1111.525 6        41.348               
G28  25782024.286 6 135485471.606 6      -617.864 6        41.308               
> 2024 12 27 02 42 51.0000000  0  4                                             
G29  27820721.469 6 146198881.917 6       287.788 6        39.699               
G31  25437129.574 7 133672996.867 7       204.707 7        42.719               
G26  24390164.059 6 128171162.506 6      1119.136 6        41.531               
G28  25782141.882 6 135486090.001 6      -616.387 6        41.044               
> 2024 12 27 02 42 52.0000000  0  4                                             
G29  27820668.273 6 146198598.850 6       280.913 6        39.191               
G31  25437089.994 7 133672792.125 7       209.620 7        42.726               
G26  24389950.721 6 128170048.712 6      1123.685 6        41.188               
G28  25782259.388 6 135486708.418 6      -617.088 6        41.374               
> 2024 12 27 02 42 53.0000000  0  4                                             
G29  27820616.828 6 146198316.245 6       281.034 6        38.807               
G31  25437054.077 7 133672587.500 7       204.304 7        42.698               
G26  24389740.438 6 128168935.482 6      1107.556 6        41.240               
G28  25782379.218 6 135487326.865 6      -616.991 6        41.379               
> 2024 12 27 02 42 54.0000000  0  4                                             
G29  27820562.434 6 146198034.127 6       281.182 6        38.666               
G31  25437016.695 7 133672383.026 7       202.624 7        42.751               
G26  24389528.654 7 128167822.829 7      1114.782 7        42.162               
G28  25782495.206 6 135487945.354 6      -625.283 6        41.254               
> 2024 12 27 02 42 55.0000000  0  4                                             
G29  27820510.882 6 146197752.526 6       281.653 6        39.448               
G31  25436970.808 7 133672178.689 7       195.565 7        42.571               
G26  24389320.587 6 128166710.724 6      1113.469 6        41.909               
G28  25782614.982 6 135488563.874 6      -617.270 6        41.577               
> 2024 12 27 02 42 56.0000000  0  4                                             
G29  27820453.165 6 146197471.393 6       281.232 6        39.552               
G31  25436932.085 7 133671974.487 7       202.850 7        42.241               
G26  24389104.515 6 128165599.252 6      1113.130 6        41.636               
G28  25782733.507 6 135489182.492 6      -622.494 6        41.717               
> 2024 12 27 02 42 57.0000000  0  4                                             
G29  27820396.038 6 146197190.765 6       279.204 6        39.539               
G31  25436892.220 6 133671770.414 6       198.005 6        41.817               
G26  24388894.322 6 128164488.342 6      1108.932 6        41.517               
G28  25782847.333 6 135489801.089 6      -618.074 6        41.596               
> 2024 12 27 02 42 58.0000000  0  4                                             
G29  27820342.288 6 146196910.637 6       273.982 6        39.162               
G31  25436856.356 7 133671566.504 7       207.912 7        42.614               
G26  24388687.738 6 128163378.044 6      1109.929 6        41.844               
G28  25782970.272 6 135490419.751 6      -620.899 6        41.896               
> 2024 12 27 02 42 59.0000000  0  4                                             
G29  27820301.046 6 146196631.009 6       278.042 6        38.620               
G31  25436810.540 7 133671362.727 7       202.045 7        42.572               
G26  24388478.760 6 128162268.300 6      1106.895 6        41.949               
G28  25783086.617 6 135491038.467 6      -619.102 6        41.953               
> 2024 12 27 02 43 00.0000000  0  4                                             
G29  27820237.290 6 146196351.879 6       281.017 6        38.460               
G31  25436775.481 6 133671159.091 6       204.850 6        41.833               
G26  24388267.995 6 128161159.128 6      1108.121 6        41.692               
G28  25783202.730 6 135491657.203 6      -611.938 6        41.666               
> 2024 12 27 02 43 01.0000000  0  4                                             
G29  27820183.039 6 146196073.216 6       279.392 6        38.658               
G31  25436739.511 6 133670955.571 6       206.041 6        41.791               
G26  24388056.390 6 128160050.562 6      1101.222 6        41.388               
G28  25783318.110 6 135492275.994 6      -618.915 6        41.549               
> 2024 12 27 02 43 02.0000000  0  4                                             
G29  27820118.550 6 146195795.090 6       284.320 6        38.609               
G31  25436698.448 6 133670752.229 6       201.415 6        41.890               
G26  24387842.623 7 128158942.547 7      1112.558 7        42.061               
G28  25783437.046 6 135492894.836 6      -621.787 6        41.683               
> 2024 12 27 02 43 03.0000000  0  4                                             
G29  27820073.556 6 146195517.417 6       279.085 6        38.660               
G31  25436661.941 6 133670548.986 6       204.495 6        41.565               
G26  24387632.018 6 128157835.134 6      1113.305 6        41.409               
G28  25783556.251 6 135493513.696 6      -615.527 6        41.762               
> 2024 12 27 02 43 04.0000000  0  4                                             
G29  27820022.933 6 146195240.238 6       276.936 6        38.664               
G31  25436625.113 6 133670345.900 6       200.419 6        41.454               
G26  24387424.041 6 128156728.277 6      1113.151 6        41.497               
G28  25783671.309 7 135494132.595 7      -618.171 7        42.147               
> 2024 12 27 02 43 05.0000000  0  4                                             
G29  27819968.254 6 146194963.548 6       269.840 6        39.022               
G31  25436577.868 6 133670142.909 6       204.625 6        41.374               
G26  24387213.258 6 128155621.994 6      1112.342 6        40.991               
G28  25783790.496 6 135494751.518 6      -619.147 6        41.994               
> 2024 12 27 02 43 06.0000000  0  5                                             
G29  27819917.541 6 146194687.314 6       268.821 6        38.715               
G32  25064693.766 7 131715857.245 7      -429.968 7        45.344               
G31  25436549.206 6 133669940.081 6       206.574 6        41.233               
G26  24386997.150 6 128154516.316 6      1109.284 6        41.079               
G28  25783909.468 6 135495370.474 6      -621.330 6        41.894               
> 2024 12 27 02 43 07.0000000  0  5                                             
G29  27819867.365 6 146194411.590 6       277.839 6        39.282               
G32  25064775.588 7 131716290.558 7      -434.946 7        44.757               
G31  25436502.532 6 133669737.384 6       203.328 6        41.591               
G26  24386790.941 6 128153411.181 6      1105.299 6        41.464               
G28  25784027.993 6 135495989.478 6      -616.686 6        41.904               
> 2024 12 27 02 43 08.0000000  0  5                                             
G29  27819810.917 6 146194136.374 6       273.377 6        39.007               
G32  25064861.895 7 131716724.323 7      -434.716 7        44.454               
G31  25436463.756 6 133669534.825 6       203.291 6        41.555               
G26  24386579.712 6 128152306.654 6      1107.909 6        41.382               
G28  25784144.552 7 135496608.545 7      -614.305 7        42.814               
> 2024 12 27 02 43 09.0000000  0  5                                             
G29  27819760.508 6 146193861.642 6       273.790 6        38.857               
G32  25064943.825 7 131717158.551 7      -434.414 7        44.942               
G31  25436423.426 6 133669332.403 6       205.336 6        41.286               
G26  24386370.823 6 128151202.687 6      1103.894 6        41.443               
G28  25784261.541 7 135497227.632 7      -619.096 7        42.408               
> 2024 12 27 02 43 10.0000000  0  5                                             
G29  27819714.192 6 146193587.428 6       271.431 6        39.088               
G32  25065026.040 7 131717593.245 7      -435.964 7        45.152               
G31  25436387.616 6 133669130.140 6       197.965 6        41.525               
G26  24386160.701 6 128150099.336 6      1101.970 6        41.371               
G28  25784383.944 7 135497846.781 7      -617.680 7        42.257               
> 2024 12 27 02 43 11.0000000  0  5                                             
G29  27819656.636 6 146193313.687 6       271.055 6        39.045               
G32  25065105.218 7 131718028.371 7      -430.692 7        45.137               
G31  25436349.913 6 133668928.015 6       204.679 6        41.417               
G26  24385952.116 6 128148996.549 6      1100.246 6        41.335               
G28  25784502.129 7 135498465.973 7      -620.333 7        42.991               
> 2024 12 27 02 43 12.0000000  0  5                                             
G29  27819603.833 6 146193040.442 6       272.761 6        39.076               
G32  25065189.220 7 131718463.984 7      -435.105 7        44.946               
G31  25436312.727 6 133668726.020 6       203.474 6        41.443               
G26  24385738.027 6 128147894.335 6      1110.299 6        41.895               
G28  25784622.370 7 135499085.182 7      -615.903 7        42.214               
> 2024 12 27 02 43 13.0000000  0  5                                             
G29  27819544.758 6 146192767.665 6       278.478 6        38.922               
G32  25065273.062 7 131718900.020 7      -435.994 7        45.016               
G31  25436276.346 6 133668524.138 6       207.266 6        41.173               
G26  24385530.979 6 128146792.689 6      1104.147 6        41.313               
G28  25784736.410 7 135499704.443 7      -620.313 7        42.536               
> 2024 12 27 02 43 14.0000000  0  5                                             
G29  27819496.279 6 146192495.401 6       264.942 6        38.556               
G32  25065355.474 7 131719336.517 7      -439.113 7        44.184               
G31  25436238.356 6 133668322.416 6       197.338 6        41.403               
G26  24385325.306 6 128145691.608 6      1103.094 6        41.632               
G28  25784857.330 7 135500323.721 7      -622.164 7        42.485               
> 2024 12 27 02 43 15.0000000  0  5                                             
G29  27819443.208 6 146192223.581 6       264.253 6        38.467               
G32  25065437.242 7 131719773.447 7      -439.277 7        44.281               
G31  25436203.976 6 133668120.814 6       200.272 6        41.592               
G26  24385117.972 7 128144591.089 7      1102.042 7        42.131               
G28  25784976.570 7 135500943.039 7      -620.177 7        42.412               
> 2024 12 27 02 43 16.0000000  0  5                                             
G29  27819393.353 6 146191952.308 6       270.905 6        39.030               
G32  25065517.295 7 131720210.859 7      -440.464 7        44.589               
G31  25436162.592 6 133667919.332 6       202.031 6        41.099               
G26  24384906.992 7 128143491.171 7      1098.862 7        42.848               
G28  25785092.129 7 135501562.416 7      -618.930 7        42.616               
> 2024 12 27 02 43 17.0000000  0  5                                             
G29  27819342.320 6 146191681.481 6       269.876 6        39.520               
G32  25065599.421 7 131720648.705 7      -441.995 7        44.156               
G31  25436127.336 6 133667717.996 6       204.436 6        41.726               
G26  24384697.889 7 128142391.816 7      1106.453 7        42.745               
G28  25785213.567 7 135502181.797 7      -620.029 7        42.748               
> 2024 12 27 02 43 18.0000000  0  5                                             
G29  27819281.618 6 146191411.267 6       269.759 6        38.668               
G32  25065685.389 7 131721087.116 7      -443.637 7        44.141               
G31  25436087.184 6 133667516.899 6       194.665 6        41.923               
G26  24384491.949 7 128141293.165 7      1100.076 7        43.405               
G28  25785332.467 7 135502801.344 7      -620.815 7        42.780               
> 2024 12 27 02 43 19.0000000  0  5                                             
G29  27819237.589 6 146191141.689 6       261.483 6        38.432               
G32  25065763.959 7 131721526.102 7      -442.727 7        43.289               
G31  25436046.407 7 133667316.069 7       205.066 7        42.082               
G26  24384282.148 7 128140195.202 7      1098.240 7        43.113               
G28  25785449.974 7 135503421.050 7      -620.707 7        42.687               
> 2024 12 27 02 43 20.0000000  0  5                                             
G29  27819195.990 6 146190872.592 6       267.437 6        38.860               
G32  25065850.642 7 131721965.569 7      -440.243 7        43.258               
G31  25436010.633 6 133667115.377 6       198.170 6        41.974               
G26  24384075.761 7 128139097.860 7      1097.932 7        43.143               
G28  25785565.140 7 135504040.810 7      -618.507 7        43.015               
> 2024 12 27 02 43 21.0000000  0  5                                             
G29  27819134.664 6 146190604.004 6       270.176 6        39.184               
G32  25065933.286 7 131722405.472 7      -436.655 7        42.672               
G31  25435973.466 7 133666914.818 7       202.002 7        42.314               
G26  24383861.940 7 128138001.045 7      1094.789 7        42.972               
G28  25785685.952 7 135504660.595 7      -620.940 7        42.519               
> 2024 12 27 02 43 22.0000000  0  5                                             
G29  27819093.690 6 146190335.853 6       267.137 6        40.017               
G32  25066015.234 7 131722845.843 7      -444.742 7        42.219               
G31  25435935.405 7 133666714.385 7       198.321 7        42.304               
G26  24383657.715 7 128136904.831 7      1096.825 7        42.518               
G28  25785802.941 7 135505280.428 7      -621.950 7        42.807               
> 2024 12 27 02 43 23.0000000  0  5                                             
G29  27819044.443 6 146190068.219 6       269.575 6        39.690               
G32  25066100.612 6 131723286.646 6      -436.911 6        41.718               
G31  25435894.753 7 133666514.089 7       201.599 7        42.130               
G26  24383444.877 7 128135809.189 7      1093.963 7        42.824               
G28  25785923.253 7 135505900.288 7      -620.178 7        42.892               
> 2024 12 27 02 43 24.0000000  0  5                                             
G29  27818988.084 6 146189801.081 6       263.549 6        40.298               
G32  25066188.938 6 131723727.909 6      -436.674 6        41.905               
G31  25435857.889 7 133666313.932 7       200.934 7        42.734               
G26  24383234.827 7 128134714.117 7      1093.669 7        42.885               
G28  25786038.204 7 135506520.182 7      -618.039 7        42.869               
> 2024 12 27 02 43 25.0000000  0  5                                             
G29  27818940.642 6 146189534.431 6       270.888 6        39.885               
G32  25066267.348 7 131724169.630 7      -441.471 7        42.165               
G31  25435815.450 7 133666113.885 7       201.167 7        43.104               
G26  24383029.137 7 128133619.613 7      1088.659 7        42.780               
G28  25786162.019 7 135507140.112 7      -619.720 7        43.364               
> 2024 12 27 02 43 26.0000000  0  5                                             
G29  27818892.914 6 146189268.273 6       262.447 6        40.548               
G32  25066349.938 7 131724611.809 7      -441.618 7        42.167               
G31  25435778.765 7 133665913.991 7       202.076 7        43.118               
G26  24382814.637 7 128132525.690 7      1096.936 7        42.989               
G28  25786277.613 7 135507760.079 7      -621.869 7        43.571               
> 2024 12 27 02 43 27.0000000  0  5                                             
G29  27818833.839 6 146189002.582 6       272.517 6        39.967               
G32  25066436.442 6 131725054.441 6      -443.855 6        41.871               
G31  25435744.010 7 133665714.223 7       199.901 7        42.731               
G26  24382604.319 7 128131432.353 7      1093.188 7        42.529               
G28  25786395.817 7 135508380.101 7      -619.985 7        43.494               
> 2024 12 27 02 43 29.0000000  0  5                                             
G29  27818739.740 6 146188472.714 6       262.171 6        40.216               
G32  25066598.782 6 131725941.055 6      -446.569 6        41.274               
G31  25435667.298 7 133665315.129 7       193.758 7        42.910               
G26  24382189.203 6 128129247.393 6      1091.107 6        41.988               
G28  25786630.366 7 135509620.242 7      -620.686 7        43.125               
> 2024 12 27 02 43 30.0000000  0  5                                             
G29  27818681.809 6 146188208.546 6       263.668 6        39.911               
G32  25066676.977 6 131726385.096 6      -440.409 6        40.007               
G31  25435629.523 7 133665115.797 7       200.528 7        43.457               
G26  24381980.243 7 128128155.822 7      1092.133 7        42.558               
G28  25786747.283 7 135510240.397 7      -623.278 7        42.726               
> 2024 12 27 02 43 39.0000000  0  5                                             
G29  27818231.116 6 146185852.802 6       261.254 6        39.954               
G32  25067447.007 6 131730401.395 6      -444.095 6        39.497               
G31  25435290.780 7 133663327.465 7       197.329 7        42.951               
G26  24380119.595 7 128118357.225 7      1082.226 7        42.364               
G28  25787810.097 7 135515823.148 7      -617.967 7        42.427               
> 2024 12 27 02 43 40.0000000  0  5                                             
G29  27818175.955 6 146185593.500 6       258.821 6        40.017               
G32  25067534.905 6 131730849.937 6      -455.470 6        39.994               
G31  25435247.662 7 133663129.469 7       200.959 7        43.144               
G26  24379912.654 7 128117271.408 7      1082.946 7        42.297               
G28  25787923.708 7 135516443.644 7      -622.253 7        42.138               
> 2024 12 27 02 43 41.0000000  0  5                                             
G29  27818132.462 6 146185334.697 6       255.782 6        40.160               
G32  25067621.516 6 131731298.917 6      -442.354 6        40.220               
G31  25435208.082 7 133662931.567 7       196.898 7        43.029               
G26  24379706.999 7 128116186.129 7      1085.728 7        42.359               
G28  25788042.072 7 135517064.186 7      -615.591 7        42.203               
> 2024 12 27 02 43 42.0000000  0  5                                             
G29  27818080.713 6 146185076.377 6       259.212 6        40.204               
G32  25067712.773 6 131731748.354 6      -450.697 6        40.878               
G31  25435172.362 7 133662733.791 7       198.653 7        42.801               
G26  24379500.612 7 128115101.427 7      1087.996 7        42.534               
G28  25788165.851 7 135517684.756 7      -620.117 7        42.128               
> 2024 12 27 02 43 43.0000000  0  5                                             
G29  27818035.862 6 146184818.555 6       259.072 6        40.168               
G32  25067797.579 6 131732198.235 6      -444.237 6        40.869               
G31  25435134.801 7 133662536.146 7       192.999 7        42.442               
G26  24379293.349 7 128114017.287 7      1081.376 7        42.329               
G28  25788287.325 7 135518305.345 7      -619.975 7        42.459               
> 2024 12 27 02 43 44.0000000  0  5                                             
G29  27817989.098 6 146184561.223 6       260.839 6        39.436               
G32  25067882.868 6 131732648.609 6      -445.081 6        40.438               
G31  25435093.935 7 133662338.670 7       201.100 7        42.273               
G26  24379084.246 6 128112933.776 6      1084.229 6        41.750               
G28  25788402.258 7 135518926.000 7      -620.586 7        42.207               
> 2024 12 27 02 43 45.0000000  0  5                                             
G29  27817936.510 6 146184304.414 6       261.848 6        39.809               
G32  25067969.015 6 131733099.435 6      -453.645 6        40.735               
G31  25435052.300 6 133662141.347 6       191.855 6        41.488               
G26  24378875.482 6 128111850.829 6      1079.384 6        41.359               
G28  25788519.336 7 135519546.703 7      -621.327 7        42.559               
> 2024 12 27 02 43 46.0000000  0  5                                             
G29  27817892.802 6 146184048.060 6       256.694 6        39.977               
G32  25068053.446 6 131733550.657 6      -444.936 6        40.454               
G31  25435012.345 7 133661944.097 7       201.401 7        42.233               
G26  24378665.986 6 128110768.439 6      1082.840 6        41.447               
G28  25788638.165 7 135520167.419 7      -620.529 7        42.539               
> 2024 12 27 02 43 47.0000000  0  5                                             
G29  27817845.825 6 146183792.195 6       256.279 6        39.962               
G32  25068137.377 6 131734002.378 6      -452.049 6        39.507               
G31  25434973.104 6 133661746.994 6       195.460 6        41.559               
G26  24378460.224 6 128109686.625 6      1084.941 6        41.271               
G28  25788755.832 7 135520788.167 7      -622.763 7        42.651               
> 2024 12 27 02 43 48.0000000  0  5                                             
G29  27817792.182 6 146183536.822 6       249.659 6        40.699               
G32  25068213.606 6 131734454.533 6      -452.284 6        39.410               
G31  25434944.675 6 133661550.032 6       193.146 6        41.475               
G26  24378255.141 6 128108605.382 6      1080.531 6        41.584               
G28  25788873.125 7 135521408.949 7      -618.666 7        42.735               
> 2024 12 27 02 43 49.0000000  0  5                                             
G29  27817753.853 6 146183281.906 6       250.855 6        40.331               
G32  25068302.504 6 131734907.084 6      -452.681 6        38.742               
G31  25434908.079 6 133661353.161 6       198.883 6        41.839               
G26  24378048.754 6 128107524.664 6      1083.734 6        41.155               
G28  25788990.560 7 135522029.744 7      -623.558 7        43.233               
> 2024 12 27 02 43 50.0000000  0  5                                             
G29  27817699.638 6 146183027.507 6       253.364 6        40.770               
G32  25068378.197 6 131735360.155 6      -449.896 6        38.556               
G31  25434874.181 6 133661156.459 6       194.655 6        41.654               
G26  24377843.725 6 128106444.580 6      1073.970 6        40.719               
G28  25789108.138 7 135522650.604 7      -623.177 7        43.210               
> 2024 12 27 02 43 51.0000000  0  5                                             
G29  27817656.735 6 146182773.605 6       251.429 6        41.215               
G32  25068468.936 6 131735813.657 6      -451.193 6        37.980               
G31  25434833.333 6 133660959.897 6       197.894 6        41.612               
G26  24377635.587 6 128105365.066 6      1080.029 6        40.265               
G28  25789225.556 7 135523271.483 7      -615.650 7        43.565               
> 2024 12 27 02 43 52.0000000  0  5                                             
G29  27817610.043 6 146182520.192 6       253.785 6        41.381               
G32  25068554.368 6 131736267.645 6      -451.474 6        38.008               
G31  25434792.073 6 133660763.472 6       196.116 6        41.346               
G26  24377426.698 6 128104286.097 6      1078.234 6        39.780               
G28  25789342.526 7 135523892.424 7      -623.115 7        43.217               
> 2024 12 27 02 43 53.0000000  0  5                                             
G29  27817556.007 6 146182267.238 6       252.167 6        41.617               
G32  25068642.480 6 131736722.012 6      -453.128 6        38.602               
G31  25434757.961 6 133660567.139 6       198.803 6        41.287               
G26  24377224.456 6 128103207.725 6      1084.432 6        39.781               
G28  25789464.268 7 135524513.343 7      -621.614 7        42.450               
> 2024 12 27 02 43 54.0000000  0  5                                             
G29  27817512.639 6 146182014.803 6       248.413 6        41.673               
G32  25068739.295 6 131737176.890 6      -463.702 6        38.650               
G31  25434724.260 6 133660370.985 6       192.157 6        41.311               
G26  24377015.746 6 128102129.948 6      1072.687 6        39.562               
G28  25789580.738 7 135525134.339 7      -618.397 7        42.648               
> 2024 12 27 02 43 56.0000000  0  5                                             
G29  27817410.625 6 146181511.441 6       249.984 6        41.611               
G32  25068902.367 6 131738088.079 6      -456.334 6        39.314               
G31  25434645.512 6 133659979.068 6       191.910 6        41.983               
G26  24376610.655 6 128099976.169 6      1069.499 6        37.954               
G28  25789818.628 7 135526376.499 7      -624.906 7        42.789               
> 2024 12 27 02 43 57.0000000  0  5                                             
G29  27817362.610 6 146181260.510 6       253.175 6        41.539               
G32  25069002.595 6 131738544.350 6      -454.637 6        39.782               
G31  25434604.985 6 133659783.332 6       196.071 6        41.935               
G26  24376401.588 6 128098900.145 6      1068.286 6        38.513               
G28  25789937.189 7 135526997.633 7      -622.900 7        43.174               
> 2024 12 27 02 43 58.0000000  0  5                                             
G29  27817322.459 6 146181010.080 6       249.419 6        40.923               
G32  25069084.721 6 131739001.091 6      -451.976 6        39.792               
G31  25434563.118 6 133659587.730 6       195.007 6        41.728               
G26  24376199.042 6 128097824.670 6      1074.328 6        38.961               
G28  25790051.640 7 135527618.813 7      -622.420 7        42.393               
> 2024 12 27 02 43 59.0000000  0  5                                             
G29  27817264.670 6 146180760.128 6       242.793 6        41.031               
G32  25069175.442 6 131739458.271 6      -457.119 6        40.732               
G31  25434529.613 6 133659392.250 6       200.266 6        41.990               
G26  24375988.134 6 128096749.808 6      1071.136 6        38.658               
G28  25790171.256 7 135528240.027 7      -622.815 7        42.666               
> 2024 12 27 02 44 00.0000000  0  5                                             
G29  27817215.959 6 146180510.665 6       244.212 6        40.789               
G32  25069263.500 6 131739915.910 6      -453.075 6        40.982               
G31  25434494.483 7 133659196.903 7       193.278 7        42.436               
G26  24375789.395 6 128095675.513 6      1073.742 6        38.798               
G28  25790289.763 7 135528861.267 7      -620.035 7        42.786               
> 2024 12 27 02 44 01.0000000  0  5                                             
G29  27817173.413 6 146180261.677 6       248.817 6        41.192               
G32  25069355.597 6 131740373.994 6      -456.324 6        40.483               
G31  25434455.332 7 133659001.688 7       195.555 7        42.352               
G26  24375585.331 6 128094601.788 6      1068.834 6        38.511               
G28  25790401.980 7 135529482.532 7      -623.564 7        42.605               
> 2024 12 27 02 44 02.0000000  0  5                                             
G29  27817118.841 6 146180013.196 6       243.043 6        40.919               
G32  25069445.729 6 131740832.552 6      -453.262 6        40.843               
G31  25434427.241 7 133658806.571 7       193.093 7        42.585               
G26  24375387.217 6 128093528.652 6      1069.829 6        37.949               
G28  25790521.453 7 135530103.849 7      -618.879 7        42.074               
> 2024 12 27 02 44 03.0000000  0  5                                             
G29  27817072.614 6 146179765.200 6       245.254 6        40.891               
G32  25069530.196 6 131741291.536 6      -461.028 6        41.653               
G31  25434391.950 7 133658611.623 7       198.049 7        42.941               
G26  24375180.847 6 128092456.090 6      1070.454 6        38.696               
G28  25790646.786 6 135530725.189 6      -615.800 6        41.871               
> 2024 12 27 02 44 04.0000000  0  5                                             
G29  27817029.532 6 146179517.714 6       244.878 6        40.886               
G32  25069619.684 6 131741750.981 6      -460.297 6        41.841               
G31  25434355.479 7 133658416.807 7       199.126 7        43.424               
G26  24374973.263 6 128091384.079 6      1073.810 6        39.497               
G28  25790761.934 6 135531346.595 6      -623.808 6        41.761               
> 2024 12 27 02 44 05.0000000  0  5                                             
G29  27816978.980 6 146179270.721 6       249.653 6        41.081               
G32  25069706.688 7 131742210.898 7      -460.514 7        42.055               
G31  25434318.544 7 133658222.126 7       194.771 7        43.817               
G26  24374776.686 6 128090312.646 6      1075.674 6        39.792               
G28  25790878.369 6 135531968.010 6      -615.460 6        41.544               
> 2024 12 27 02 44 06.0000000  0  5                                             
G29  27816936.631 6 146179024.216 6       251.059 6        41.876               
G32  25069790.476 6 131742671.279 6      -460.364 6        41.478               
G31  25434279.679 7 133658027.582 7       195.680 7        43.613               
G26  24374568.601 6 128089241.814 6      1078.983 6        39.607               
G28  25790992.552 6 135532589.496 6      -622.418 6        41.925               
> 2024 12 27 02 44 07.0000000  0  5                                             
G29  27816889.725 6 146178778.231 6       244.648 6        41.218               
G32  25069879.839 6 131743132.113 6      -459.475 6        41.557               
G31  25434245.245 7 133657833.185 7       196.827 7        44.007               
G26  24374369.701 6 128088171.592 6      1073.119 6        38.990               
G28  25791111.470 7 135533211.013 7      -622.251 7        42.333               
> 2024 12 27 02 44 08.0000000  0  5                                             
G29  27816841.907 6 146178532.757 6       246.868 6        41.414               
G32  25069964.734 6 131743593.463 6      -460.786 6        41.666               
G31  25434206.291 7 133657638.954 7       195.416 7        44.126               
G26  24374167.263 6 128087101.932 6      1074.625 6        38.465               
G28  25791227.243 6 135533832.607 6      -616.386 6        41.678               
> 2024 12 27 02 44 09.0000000  0  5                                             
G29  27816801.523 6 146178287.810 6       246.509 6        41.720               
G32  25070052.221 6 131744055.255 6      -466.169 6        41.994               
G31  25434167.640 7 133657444.869 7       195.911 7        43.651               
G26  24373962.377 6 128086032.928 6      1063.865 6        39.111               
G28  25791342.570 6 135534454.259 6      -624.335 6        41.653               
> 2024 12 27 02 44 10.0000000  0  5                                             
G29  27816749.256 6 146178043.320 6       246.808 6        41.500               
G32  25070140.744 7 131744517.516 7      -463.252 7        42.568               
G31  25434129.168 7 133657250.907 7       197.480 7        43.792               
G26  24373762.172 6 128084964.467 6      1069.391 6        39.704               
G28  25791468.457 6 135535075.940 6      -621.086 6        41.328               
> 2024 12 27 02 44 11.0000000  0  5                                             
G29  27816709.962 7 146177799.333 7       249.910 7        42.286               
G32  25070231.984 7 131744980.186 7      -460.929 7        43.314               
G31  25434092.608 7 133657057.080 7       193.869 7        43.890               
G26  24373555.856 6 128083896.594 6      1070.638 6        39.579               
G28  25791583.177 6 135535697.648 6      -628.126 6        41.715               
> 2024 12 27 02 44 12.0000000  0  5                                             
G29  27816662.752 7 146177555.814 7       246.207 7        42.956               
G32  25070318.577 7 131745443.364 7      -462.215 7        42.913               
G31  25434057.603 7 133656863.363 7       190.180 7        44.049               
G26  24373358.547 6 128082829.279 6      1062.965 6        39.932               
G28  25791700.254 6 135536319.378 6      -622.796 6        41.780               
> 2024 12 27 02 44 13.0000000  0  5                                             
G29  27816615.971 7 146177312.817 7       242.660 7        42.681               
G32  25070403.276 7 131745906.979 7      -465.163 7        43.401               
G31  25434023.598 7 133656669.812 7       192.039 7        43.869               
G26  24373155.787 6 128081762.526 6      1069.996 6        40.624               
G28  25791818.637 6 135536941.185 6      -618.378 6        41.530               
> 2024 12 27 02 44 14.0000000  0  5                                             
G29  27816576.749 7 146177070.307 7       243.369 7        42.390               
G32  25070494.319 7 131746371.049 7      -461.694 7        42.994               
G31  25433986.967 7 133656476.388 7       190.891 7        43.798               
G26  24372950.239 6 128080696.387 6      1067.912 6        40.429               
G28  25791937.001 6 135537563.029 6      -623.113 6        41.553               
> 2024 12 27 02 44 15.0000000  0  5                                             
G29  27816527.252 7 146176828.297 7       242.999 7        42.579               
G32  25070582.395 7 131746835.586 7      -469.035 7        42.771               
G31  25433944.974 7 133656283.091 7       192.407 7        43.720               
G26  24372748.087 6 128079630.819 6      1063.643 6        40.056               
G28  25792057.242 6 135538184.899 6      -618.863 6        41.471               
> 2024 12 27 02 44 16.0000000  0  5                                             
G29  27816487.368 7 146176586.782 7       241.402 7        43.012               
G32  25070671.972 7 131747300.582 7      -470.091 7        43.161               
G31  25433911.023 7 133656089.947 7       189.785 7        43.855               
G26  24372550.045 6 128078565.816 6      1066.698 6        39.896               
G28  25792174.177 6 135538806.803 6      -618.493 6        41.193               
> 2024 12 27 02 44 17.0000000  0  5                                             
G29  27816432.296 7 146176345.748 7       242.145 7        42.936               
G32  25070759.370 7 131747766.013 7      -460.330 7        43.054               
G31  25433872.694 7 133655896.916 7       194.144 7        43.959               
G26  24372346.677 6 128077501.403 6      1055.126 6        39.544               
G28  25792290.111 6 135539428.745 6      -625.410 6        41.104               
> 2024 12 27 02 44 18.0000000  0  5                                             
G29  27816385.729 7 146176105.213 7       238.487 7        42.848               
G32  25070843.962 7 131748231.912 7      -466.132 7        42.079               
G31  25433837.868 7 133655704.003 7       192.649 7        43.891               
G26  24372144.936 6 128076437.569 6      1053.534 6        39.699               
G28  25792408.976 6 135540050.685 6      -621.732 6        40.935               
> 2024 12 27 02 44 19.0000000  0  5                                             
G29  27816344.380 7 146175865.152 7       237.613 7        42.930               
G32  25070936.416 7 131748698.262 7      -465.722 7        42.430               
G31  25433798.591 7 133655511.222 7       193.701 7        43.772               
G26  24371936.530 6 128075374.262 6      1059.637 6        39.609               
G28  25792532.522 6 135540672.699 6      -625.192 6        40.941               
> 2024 12 27 02 44 20.0000000  0  5                                             
G29  27816291.345 7 146175625.574 7       237.531 7        43.195               
G32  25071020.329 7 131749165.064 7      -467.874 7        42.099               
G31  25433761.871 7 133655318.578 7       194.301 7        43.936               
G26  24371732.305 6 128074311.561 6      1065.648 6        38.906               
G28  25792654.818 6 135541294.750 6      -620.215 6        41.091               
> 2024 12 27 02 44 21.0000000  0  5                                             
G29  27816252.515 7 146175386.501 7       240.896 7        43.178               
G32  25071110.997 7 131749632.339 7      -467.228 7        42.104               
G31  25433725.739 7 133655126.071 7       192.805 7        44.101               
G26  24371530.063 6 128073249.418 6      1054.984 6        38.622               
G28  25792770.126 6 135541916.830 6      -621.280 6        41.412               
> 2024 12 27 02 44 22.0000000  0  5                                             
G29  27816199.998 7 146175147.962 7       235.362 7        42.802               
G32  25071197.268 6 131750100.080 6      -467.791 6        41.832               
G31  25433690.537 7 133654933.705 7       191.374 7        43.377               
G26  24371328.107 6 128072187.922 6      1067.036 6        38.497               
G28  25792890.724 6 135542538.974 6      -620.882 6        40.961               
> 2024 12 27 02 44 23.0000000  0  5                                             
G29  27816152.645 7 146174909.927 7       233.935 7        42.203               
G32  25071288.221 6 131750568.279 6      -463.417 6        41.671               
G31  25433653.030 7 133654741.500 7       195.223 7        43.180               
G26  24371122.739 6 128071126.972 6      1062.363 6        38.524               
G28  25793009.929 6 135543161.154 6      -628.808 6        40.503               
> 2024 12 27 02 44 24.0000000  0  5                                             
G29  27816103.970 6 146174672.366 6       236.201 6        41.827               
G32  25071377.316 6 131751036.954 6      -469.858 6        41.749               
G31  25433616.167 7 133654549.405 7       188.938 7        43.347               
G26  24370922.963 6 128070066.606 6      1060.393 6        38.629               
G28  25793127.400 6 135543783.371 6      -619.228 6        41.141               
> 2024 12 27 02 44 25.0000000  0  5                                             
G29  27816055.885 6 146174435.307 6       243.942 6        41.708               
G32  25071468.681 6 131751506.075 6      -469.149 6        41.896               
G31  25433575.193 7 133654357.439 7       191.354 7        43.100               
G26  24370712.734 6 128069006.799 6      1052.835 6        39.361               
G28  25793246.211 6 135544405.624 6      -625.450 6        41.611               
> 2024 12 27 02 44 26.0000000  0  5                                             
G29  27816012.820 6 146174198.778 6       237.241 6        41.282               
G32  25071559.134 6 131751975.691 6      -468.842 6        41.966               
G31  25433544.190 7 133654165.647 7       187.498 7        42.834               
G26  24370521.250 6 128067947.652 6      1050.663 6        39.222               
G28  25793365.040 7 135545027.932 7      -622.172 7        42.035               
> 2024 12 27 02 44 27.0000000  0  5                                             
G29  27815971.829 6 146173962.727 6       237.168 6        41.156               
G32  25071651.445 7 131752445.724 7      -467.195 7        42.421               
G31  25433508.935 7 133653973.993 7       188.414 7        43.015               
G26  24370322.492 6 128066888.990 6      1057.610 6        38.827               
G28  25793484.208 6 135545650.271 6      -622.168 6        41.726               
> 2024 12 27 02 44 28.0000000  0  5                                             
G29  27815919.508 6 146173727.402 6       234.280 6        40.963               
G32  25071741.005 7 131752916.459 7      -470.111 7        42.903               
G31  25433467.443 7 133653782.681 7       191.044 7        42.611               
G26  24370120.108 6 128065831.185 6      1062.881 6        39.473               
G28  25793603.037 6 135546272.899 6      -623.807 6        41.967               
> 2024 12 27 02 44 29.0000000  0  5                                             
G29  27815882.895 6 146173492.771 6       238.696 6        41.318               
G32  25071826.669 7 131753387.866 7      -471.871 7        43.350               
G31  25433429.274 7 133653591.719 7       188.447 7        42.543               
G26  24369916.562 6 128064774.170 6      1051.488 6        39.385               
G28  25793720.204 7 135546895.765 7      -620.975 7        42.005               
> 2024 12 27 02 44 30.0000000  0  5                                             
G29  27815838.204 6 146173258.646 6       236.576 6        41.878               
G32  25071921.911 7 131753859.733 7      -473.426 7        43.499               
G31  25433400.470 6 133653400.901 6       185.763 6        41.918               
G26  24369719.860 6 128063717.756 6      1058.196 6        38.864               
G28  25793842.214 6 135547518.668 6      -622.781 6        41.431               
> 2024 12 27 02 44 31.0000000  0  5                                             
G29  27815800.572 7 146173025.006 7       234.320 7        42.379               
G32  25072014.704 7 131754332.060 7      -475.599 7        43.784               
G31  25433358.352 7 133653210.213 7       195.971 7        42.498               
G26  24369510.971 6 128062661.908 6      1060.691 6        38.900               
G28  25793960.471 6 135548141.624 6      -623.144 6        41.806               
> 2024 12 27 02 44 32.0000000  0  5                                             
G29  27815758.598 7 146172791.890 7       234.340 7        43.007               
G32  25072105.551 7 131754804.855 7      -474.489 7        43.730               
G31  25433325.527 7 133653019.672 7       182.601 7        42.624               
G26  24369311.963 6 128061606.653 6      1052.545 6        38.774               
G28  25794074.047 7 135548764.630 7      -624.937 7        42.024               
> 2024 12 27 02 44 33.0000000  0  5                                             
G29  27815718.875 7 146172559.240 7       234.590 7        43.257               
G32  25072189.714 7 131755278.118 7      -472.330 7        43.800               
G31  25433284.786 7 133652829.264 7       183.403 7        42.992               
G26  24369108.471 6 128060551.958 6      1057.360 6        38.524               
G28  25794196.968 7 135549387.652 7      -623.299 7        42.465               
> 2024 12 27 02 44 34.0000000  0  5                                             
G29  27815672.916 7 146172327.088 7       231.555 7        43.650               
G32  25072282.257 7 131755751.806 7      -476.349 7        43.687               
G31  25433250.566 7 133652638.972 7       186.265 7        43.304               
G26  24368912.591 6 128059497.832 6      1048.691 6        38.391               
G28  25794311.812 7 135550010.714 7      -621.644 7        43.054               
> 2024 12 27 02 44 35.0000000  0  5                                             
G29  27815628.279 7 146172095.422 7       232.904 7        43.820               
G32  25072374.140 7 131756225.964 7      -470.367 7        44.196               
G31  25433212.416 7 133652448.812 7       189.773 7        43.230               
G26  24368698.681 6 128058444.277 6      1056.571 6        38.202               
G28  25794433.804 7 135550633.808 7      -618.771 7        42.669               
> 2024 12 27 02 44 36.0000000  0  5                                             
G29  27815589.503 7 146171864.271 7       230.616 7        43.580               
G32  25072465.468 7 131756700.582 7      -472.685 7        44.357               
G31  25433177.500 7 133652258.802 7       185.996 7        42.986               
G26  24368499.816 6 128057391.332 6      1060.044 6        38.439               
G28  25794553.187 7 135551256.958 7      -620.576 7        42.103               
> 2024 12 27 02 44 37.0000000  0  5                                             
G29  27815538.987 7 146171633.598 7       228.140 7        43.648               
G32  25072553.598 7 131757175.653 7      -471.594 7        44.158               
G31  25433144.031 7 133652068.902 7       187.232 7        43.293               
G26  24368298.879 6 128056338.950 6      1042.256 6        38.055               
G28  25794672.391 7 135551880.119 7      -621.292 7        42.476               
> 2024 12 27 02 44 38.0000000  0  5                                             
G29  27815494.779 7 146171403.425 7       228.211 7        43.984               
G32  25072648.233 7 131757651.193 7      -475.664 7        44.240               
G31  25433109.419 7 133651879.164 7       188.683 7        43.341               
G26  24368101.534 6 128055287.144 6      1061.569 6        37.893               
G28  25794791.935 7 135552503.342 7      -618.037 7        43.146               
> 2024 12 27 02 44 39.0000000  0  5                                             
G29  27815451.429 7 146171173.773 7       229.372 7        43.420               
G32  25072735.773 7 131758127.186 7      -474.006 7        43.750               
G31  25433074.932 7 133651689.557 7       187.215 7        43.369               
G26  24367897.898 6 128054235.904 6      1048.799 6        37.398               
G28  25794916.107 7 135553126.598 7      -624.281 7        42.753               
> 2024 12 27 02 44 40.0000000  0  5                                             
G29  27815403.361 7 146170944.588 7       233.385 7        43.093               
G32  25072824.600 7 131758603.616 7      -475.944 7        43.748               
G31  25433038.532 7 133651500.074 7       188.291 7        43.571               
G26  24367695.335 6 128053185.275 6      1041.724 6        37.753               
G28  25795029.772 7 135553749.879 7      -621.771 7        42.755               
> 2024 12 27 02 44 41.0000000  0  5                                             
G29  27815360.887 7 146170715.912 7       224.735 7        42.491               
G32  25072915.500 7 131759080.525 7      -482.381 7        43.356               
G31  25433005.296 7 133651310.710 7       191.245 7        43.224               
G26  24367498.204 6 128052135.205 6      1052.265 6        37.964               
G28  25795150.530 7 135554373.196 7      -623.769 7        43.282               
> 2024 12 27 02 44 42.0000000  0  5                                             
G29  27815312.033 6 146170487.718 6       227.006 6        41.654               
G32  25073006.757 7 131759557.869 7      -478.810 7        43.632               
G31  25432968.736 7 133651121.492 7       192.817 7        43.519               
G26  24367297.642 6 128051085.677 6      1057.220 6        37.016               
G28  25795264.177 7 135554996.552 7      -627.015 7        42.807               
> 2024 12 27 02 44 43.0000000  0  5                                             
G29  27815266.252 6 146170259.999 6       230.763 6        41.562               
G32  25073092.707 7 131760035.666 7      -480.229 7        43.517               
G31  25432929.103 7 133650932.382 7       191.526 7        43.643               
G26  24367101.708 6 128050036.784 6      1049.306 6        37.307               
G28  25795385.794 7 135555619.912 7      -622.592 7        42.967               
> 2024 12 27 02 44 44.0000000  0  5                                             
G29  27815222.044 6 146170032.789 6       225.394 6        41.560               
G32  25073184.500 7 131760513.921 7      -476.403 7        42.735               
G31  25432894.901 7 133650743.413 7       191.323 7        43.522               
G26  24366903.791 6 128048988.387 6      1053.345 6        37.712               
G28  25795504.623 7 135556243.335 7      -624.654 7        42.850               
> 2024 12 27 02 44 45.0000000  0  5                                             
G29  27815175.460 6 146169806.055 6       223.485 6        41.124               
G32  25073277.079 7 131760992.617 7      -480.196 7        42.405               
G31  25432854.642 7 133650554.540 7       188.535 7        43.448               
G26  24366697.690 6 128047940.609 6      1040.239 6        37.732               
G28  25795626.436 7 135556866.747 7      -622.437 7        43.328               
> 2024 12 27 02 44 46.0000000  0  5                                             
G29  27815134.468 6 146169579.844 6       229.700 6        40.544               
G32  25073370.070 6 131761471.779 6      -477.087 6        41.838               
G31  25432817.814 7 133650365.833 7       186.260 7        43.685               
G26  24366502.113 6 128046893.382 6      1049.492 6        37.825               
G28  25795743.371 7 135557490.232 7      -629.270 7        43.048               
> 2024 12 27 02 44 47.0000000  0  5                                             
G29  27815090.064 6 146169354.063 6       229.896 6        40.415               
G32  25073462.792 7 131761951.371 7      -481.681 7        42.601               
G31  25432786.633 7 133650177.217 7       192.736 7        43.446               
G26  24366322.744 6 128045846.734 6      1040.941 6        37.717               
G28  25795860.878 7 135558113.718 7      -620.981 7        43.351               
> 2024 12 27 02 44 48.0000000  0  5                                             
G29  27815046.374 6 146169128.803 6       225.160 6        40.452               
G32  25073547.527 7 131762431.395 7      -480.592 7        43.162               
G31  25432747.929 7 133649988.728 7       189.725 7        43.435               
G26  24366111.514 6 128044800.650 6      1048.755 6        38.282               
G28  25795979.403 7 135558737.230 7      -620.692 7        42.874               
> 2024 12 27 02 44 49.0000000  0  5                                             
G29  27815005.543 6 146168904.064 6       223.561 6        40.923               
G32  25073643.359 7 131762911.939 7      -484.220 7        42.741               
G31  25432717.444 7 133649800.424 7       184.723 7        43.333               
G26  24365910.845 6 128043755.166 6      1043.012 6        38.344               
G28  25796101.252 7 135559360.819 7      -624.211 7        43.061               
> 2024 12 27 02 44 50.0000000  0  5                                             
G29  27814970.913 6 146168679.818 6       225.733 6        40.843               
G32  25073739.333 7 131763392.928 7      -481.614 7        42.697               
G31  25432681.152 7 133649612.229 7       186.542 7        43.516               
G26  24365718.056 6 128042710.253 6      1040.051 6        38.194               
G28  25796218.705 7 135559984.452 7      -624.596 7        43.095               
> 2024 12 27 02 44 51.0000000  0  5                                             
G29  27814924.740 6 146168456.082 6       223.356 6        40.898               
G32  25073831.269 7 131763874.370 7      -474.235 7        42.865               
G31  25432643.752 7 133649424.178 7       189.388 7        43.599               
G26  24365509.114 6 128041665.941 6      1042.890 6        38.714               
G28  25796337.141 7 135560608.114 7      -626.873 7        42.783               
> 2024 12 27 02 44 52.0000000  0  5                                             
G29  27814885.732 6 146168232.831 6       224.012 6        41.797               
G32  25073924.385 7 131764356.280 7      -482.239 7        42.353               
G31  25432608.103 7 133649236.247 7       185.983 7        44.114               
G26  24365311.643 6 128040622.162 6      1047.310 6        38.729               
G28  25796453.593 7 135561231.813 7      -625.864 7        42.695               
> 2024 12 27 02 44 53.0000000  0  5                                             
G29  27814847.599 6 146168010.073 6       221.852 6        41.944               
G32  25074010.907 7 131764838.667 7      -481.023 7        42.782               
G31  25432573.759 7 133649048.475 7       185.819 7        44.106               
G26  24365115.674 6 128039579.035 6      1034.434 6        38.629               
G28  25796574.120 7 135561855.564 7      -623.610 7        43.062               
> 2024 12 27 02 44 54.0000000  0  5                                             
G29  27814799.138 6 146167787.828 6       225.652 6        41.831               
G32  25074104.129 7 131765321.518 7      -486.821 7        43.294               
G31  25432537.521 7 133648860.840 7       189.287 7        43.328               
G26  24364917.327 6 128038536.458 6      1048.557 6        37.571               
G28  25796689.089 7 135562479.359 7      -626.628 7        42.616               
> 2024 12 27 02 44 55.0000000  0  5                                             
G29  27814762.650 6 146167566.032 6       222.867 6        41.824               
G32  25074197.227 7 131765804.776 7      -481.046 7        42.260               
G31  25432502.926 7 133648673.295 7       192.803 7        43.809               
G26  24364709.243 6 128037494.430 6      1040.771 6        37.476               
G28  25796807.114 7 135563103.156 7      -623.017 7        42.923               
> 2024 12 27 02 44 56.0000000  0  5                                             
G29  27814719.818 7 146167344.770 7       221.125 7        42.477               
G32  25074286.393 7 131766288.525 7      -481.291 7        42.882               
G31  25432469.279 7 133648485.888 7       185.829 7        43.406               
G26  24364518.258 6 128036452.995 6      1040.108 6        37.391               
G28  25796925.407 7 135563726.996 7      -629.228 7        42.586               
> 2024 12 27 02 44 57.0000000  0  5                                             
G29  27814676.878 7 146167123.995 7       219.393 7        42.099               
G32  25074380.402 7 131766772.718 7      -484.100 7        42.431               
G31  25432428.502 7 133648298.634 7       188.275 7        43.901               
G26  24364317.357 6 128035412.123 6      1030.502 6        37.334               
G28  25797044.951 7 135564350.869 7      -622.784 7        42.615               
> 2024 12 27 02 44 58.0000000  0  5                                             
G29  27814637.299 7 146166903.686 7       221.651 7        42.503               
G32  25074469.980 7 131767257.371 7      -480.689 7        42.487               
G31  25432394.694 7 133648111.494 7       185.665 7        44.054               
G26  24364128.892 6 128034371.838 6      1037.854 6        37.230               
G28  25797161.510 7 135564974.775 7      -623.455 7        42.194               
> 2024 12 27 02 44 59.0000000  0  5                                             
G29  27814598.844 7 146166683.881 7       221.034 7        43.051               
G32  25074560.397 7 131767742.474 7      -492.210 7        42.495               
G31  25432358.044 7 133647924.474 7       187.209 7        43.970               
G26  24363917.252 6 128033332.114 6      1035.377 6        37.110               
G28  25797277.927 7 135565598.731 7      -628.025 7        42.093               
> 2024 12 27 02 45 00.0000000  0  5                                             
G29  27814557.942 7 146166464.556 7       221.781 7        43.395               
G32  25074650.993 7 131768228.009 7      -487.918 7        42.443               
G31  25432324.987 7 133647737.560 7       187.715 7        43.845               
G26  24363730.360 6 128032292.945 6      1037.785 6        37.545               
G28  25797397.417 6 135566222.682 6      -624.352 6        41.974               
> 2024 12 27 02 45 01.0000000  0  5                                             
G29  27814512.734 7 146166245.719 7       218.952 7        43.193               
G32  25074742.393 7 131768713.970 7      -485.759 7        42.407               
G31  25432287.462 7 133647550.788 7       187.795 7        43.785               
G26  24363528.029 6 128031254.364 6      1049.970 6        37.157               
G28  25797514.352 7 135566846.660 7      -619.619 7        42.097               
> 2024 12 27 02 45 02.0000000  0  5                                             
G29  27814476.477 7 146166027.388 7       219.365 7        42.810               
G32  25074833.239 7 131769200.441 7      -484.224 7        42.581               
G31  25432253.707 7 133647364.148 7       191.722 7        43.927               
G26  24363331.076 6 128030216.338 6      1041.280 6        36.814               
G28  25797629.053 6 135567470.706 6      -623.105 6        41.432               
> 2024 12 27 02 45 03.0000000  0  5                                             
G29  27814428.874 7 146165809.552 7       216.427 7        42.206               
G32  25074929.642 7 131769687.345 7      -485.657 7        42.763               
G31  25432215.968 7 133647177.633 7       183.821 7        43.637               
G26  24363134.946 6 128029178.965 6      1033.956 6        37.198               
G28  25797746.739 6 135568094.767 6      -623.369 6        41.211               
> 2024 12 27 02 45 04.0000000  0  5                                             
G29  27814391.063 6 146165592.244 6       214.903 6        41.623               
G32  25075021.864 7 131770174.737 7      -486.462 7        42.787               
G31  25432182.267 7 133646991.292 7       187.441 7        43.448               
G26  24362935.831 6 128028142.070 6      1041.033 6        36.569               
G28  25797865.693 6 135568718.902 6      -623.447 6        40.296               
> 2024 12 27 02 45 07.0000000  0  5                                             
G29  27814253.561 6 146164943.317 6       216.521 6        41.312               
G32  25075307.072 7 131771639.720 7      -489.034 7        43.541               
G31  25432074.141 7 133646433.077 7       182.404 7        43.202               
G26  24362341.722 6 128025035.154 6      1031.797 6        36.785               
G28  25798224.646 6 135570591.569 6      -620.996 6        40.053               
> 2024 12 27 02 45 09.0000000  0  5                                             
G29  27814164.037 6 146164513.248 6       214.605 6        39.937               
G32  25075494.000 7 131772618.668 7      -487.828 7        43.215               
G31  25431997.984 7 133646061.577 7       186.347 7        43.242               
G26  24361950.462 6 128022966.750 6      1041.428 6        36.826               
G28  25798459.838 6 135571840.188 6      -616.980 6        39.572               
> 2024 12 27 02 45 12.0000000  0  5                                             
G29  27814047.835 6 146163871.784 6       218.462 6        40.381               
G32  25075769.522 7 131774090.543 7      -490.323 7        43.712               
G31  25431895.362 7 133645505.306 7       182.807 7        43.475               
G26  24361372.381 6 128019868.459 6      1039.928 6        36.777               
G28  25798807.908 6 135573713.408 6      -623.630 6        39.491               
> 2024 12 27 02 45 13.0000000  0  5                                             
G29  27814020.013 6 146163658.966 6       212.839 6        40.916               
G32  25075863.210 7 131774582.087 7      -488.922 7        43.430               
G31  25431857.104 7 133645320.149 7       186.803 7        43.350               
G26  24361172.177 6 128018836.870 6      1027.298 6        37.785               
G28  25798929.168 6 135574337.900 6      -627.049 6        39.297               
> 2024 12 27 02 45 14.0000000  0  5                                             
G29  27813978.218 6 146163446.626 6       210.237 6        41.420               
G32  25075952.036 7 131775074.094 7      -492.862 7        43.230               
G31  25431825.208 7 133645135.126 7       184.266 7        43.345               
G26  24360980.925 6 128017805.854 6      1030.393 6        38.296               
G28  25799043.654 6 135574962.416 6      -630.126 6        39.163               
> 2024 12 27 02 45 15.0000000  0  5                                             
G29  27813947.376 7 146163234.794 7       210.849 7        42.125               
G32  25076048.100 7 131775566.554 7      -489.761 7        43.332               
G31  25431789.809 7 133644950.232 7       189.628 7        43.424               
G26  24360786.313 6 128016775.409 6      1024.192 6        38.372               
G28  25799161.804 6 135575586.982 6      -625.612 6        39.013               
> 2024 12 27 02 45 16.0000000  0  5                                             
G29  27813901.470 7 146163023.451 7       206.342 7        42.570               
G32  25076139.965 7 131776059.483 7      -487.566 7        42.919               
G31  25431756.680 7 133644765.486 7       185.389 7        42.678               
G26  24360584.375 6 128015745.589 6      1019.692 6        38.420               
G28  25799285.530 6 135576211.580 6      -622.443 6        39.378               
> 2024 12 27 02 45 17.0000000  0  5                                             
G29  27813870.235 7 146162812.605 7       210.955 7        42.612               
G32  25076234.421 7 131776552.886 7      -494.843 7        43.097               
G31  25431723.551 7 133644580.858 7       187.690 7        42.814               
G26  24360398.251 6 128014716.288 6      1034.574 6        38.843               
G28  25799401.464 6 135576836.202 6      -626.021 6        39.594               
> 2024 12 27 02 45 18.0000000  0  5                                             
G29  27813825.455 7 146162602.222 7       217.685 7        42.904               
G32  25076327.554 7 131777046.711 7      -495.996 7        42.787               
G31  25431685.633 7 133644396.353 7       184.864 7        43.723               
G26  24360203.283 6 128013687.578 6      1028.743 6        39.386               
G28  25799521.740 6 135577460.869 6      -634.383 6        39.209               
> 2024 12 27 02 45 19.0000000  0  5                                             
G29  27813790.057 7 146162392.343 7       215.459 7        42.824               
G32  25076422.528 7 131777540.978 7      -496.857 7        43.219               
G31  25431650.324 7 133644211.976 7       182.861 7        43.546               
G26  24360007.295 6 128012659.411 6      1029.138 6        39.675               
G28  25799638.264 6 135578085.559 6      -625.290 6        39.239               
> 2024 12 27 02 45 20.0000000  0  5                                             
G29  27813747.385 7 146162182.978 7       209.043 7        42.509               
G32  25076515.929 7 131778035.731 7      -503.519 7        43.033               
G31  25431615.444 7 133644027.708 7       186.294 7        43.642               
G26  24359812.719 6 128011631.851 6      1033.340 6        40.123               
G28  25799756.879 6 135578710.269 6      -623.656 6        39.310               
> 2024 12 27 02 45 21.0000000  0  5                                             
G29  27813707.162 7 146161974.100 7       208.317 7        43.024               
G32  25076615.442 7 131778530.930 7      -496.832 7        43.160               
G31  25431578.991 7 133643843.604 7       183.251 7        43.847               
G26  24359621.896 6 128010604.878 6      1028.337 6        41.144               
G28  25799875.815 6 135579335.035 6      -623.826 6        39.177               
> 2024 12 27 02 45 22.0000000  0  5                                             
G29  27813661.400 7 146161765.754 7       209.312 7        42.152               
G32  25076708.647 7 131779026.627 7      -497.894 7        43.881               
G31  25431541.573 7 133643659.648 7       182.742 7        43.554               
G26  24359423.854 6 128009578.499 6      1023.696 6        41.494               
G28  25799997.592 6 135579959.860 6      -633.094 6        39.268               
> 2024 12 27 02 45 23.0000000  0  5                                             
G29  27813617.353 6 146161557.901 6       211.972 6        41.628               
G32  25076806.765 7 131779522.787 7      -494.582 7        43.944               
G31  25431508.730 7 133643475.815 7       189.149 7        43.760               
G26  24359235.121 6 128008552.722 6      1016.556 6        41.618               
G28  25800118.280 6 135580584.740 6      -628.581 6        40.057               
> 2024 12 27 02 45 24.0000000  0  5                                             
G29  27813576.629 6 146161350.549 6       211.691 6        41.520               
G32  25076900.006 7 131780019.408 7      -497.473 7        43.894               
G31  25431476.208 7 133643292.115 7       182.440 7        43.937               
G26  24359035.703 6 128007527.476 6      1025.443 6        41.706               
G28  25800242.666 6 135581209.612 6      -625.199 6        40.661               
> 2024 12 27 02 45 25.0000000  0  5                                             
G29  27813528.508 6 146161143.689 6       211.353 6        40.796               
G32  25076996.481 7 131780516.461 7      -496.545 7        44.367               
G31  25431442.918 7 133643108.530 7       186.776 7        44.083               
G26  24358840.698 6 128006502.842 6      1022.536 6        41.823               
G28  25800362.138 6 135581834.549 6      -622.896 6        40.978               
> 2024 12 27 02 45 26.0000000  0  5                                             
G29  27813485.175 6 146160937.346 6       202.578 6        39.650               
G32  25077089.418 7 131781014.007 7      -498.592 7        44.216               
G31  25431407.627 7 133642925.117 7       184.695 7        43.702               
G26  24358647.391 6 128005478.765 6      1024.939 6        41.945               
G28  25800479.198 6 135582459.523 6      -625.887 6        40.482               
> 2024 12 27 02 45 27.0000000  0  5                                             
G29  27813442.236 6 146160731.483 6       209.413 6        38.909               
G32  25077185.392 7 131781511.980 7      -502.759 7        44.525               
G31  25431374.033 7 133642741.787 7       181.110 7        44.071               
G26  24358450.653 6 128004455.266 6      1027.240 6        41.960               
G28  25800598.867 6 135583084.527 6      -625.643 6        40.788               
> 2024 12 27 02 45 28.0000000  0  5                                             
G29  27813398.904 6 146160526.148 6       200.958 6        38.189               
G32  25077280.706 7 131782010.463 7      -500.851 7        45.039               
G31  25431340.153 7 133642558.631 7       185.309 7        43.941               
G26  24358254.308 6 128003432.371 6      1029.178 6        41.717               
G28  25800722.932 6 135583709.585 6      -624.233 6        41.063               
> 2024 12 27 02 45 29.0000000  0  5                                             
G29  27813362.040 6 146160321.337 6       202.300 6        38.176               
G32  25077374.035 7 131782509.415 7      -498.018 7        44.637               
G31  25431302.575 7 133642375.628 7       181.268 7        43.979               
G26  24358060.590 6 128002410.075 6      1023.744 6        41.356               
G28  25800845.960 6 135584334.723 6      -622.539 6        41.011               
> 2024 12 27 02 45 30.0000000  0  5                                             
G29  27813325.301 6 146160117.034 6       199.924 6        38.512               
G32  25077471.708 7 131783008.825 7      -499.885 7        45.042               
G31  25431267.319 7 133642192.759 7       180.745 7        44.107               
G26  24357865.603 6 128001388.386 6      1021.317 6        41.413               
G28  25800961.894 6 135584959.886 6      -622.956 6        41.425               
> 2024 12 27 02 45 31.0000000  0  5                                             
G29  27813296.907 6 146159913.224 6       199.728 6        38.353               
G32  25077563.644 7 131783508.701 7      -498.908 7        44.819               
G31  25431231.134 7 133642010.034 7       180.988 7        44.277               
G26  24357675.781 6 128000367.263 6      1023.261 6        41.845               
G28  25801087.370 6 135585585.100 6      -627.201 6        41.710               
> 2024 12 27 02 45 32.0000000  0  5                                             
G29  27813264.082 6 146159709.897 6       201.768 6        38.881               
G32  25077659.154 7 131784009.053 7      -504.839 7        44.651               
G31  25431198.273 7 133641827.423 7       176.973 7        43.980               
G26  24357479.096 7 127999346.713 7      1019.919 7        42.208               
G28  25801203.555 6 135586210.342 6      -627.040 6        41.979               
> 2024 12 27 02 45 33.0000000  0  5                                             
G29  27813225.306 6 146159507.060 6       193.154 6        39.602               
G32  25077755.003 7 131784509.826 7      -495.367 7        45.175               
G31  25431162.875 7 133641644.971 7       183.645 7        44.434               
G26  24357282.501 7 127998326.736 7      1024.322 7        42.298               
G28  25801324.832 6 135586835.610 6      -623.089 6        41.477               
> 2024 12 27 02 45 34.0000000  0  5                                             
G29  27813185.851 6 146159304.717 6       199.190 6        40.048               
G32  25077851.406 7 131785011.099 7      -502.021 7        44.005               
G31  25431127.244 7 133641462.620 7       186.167 7        44.504               
G26  24357088.337 7 127997307.332 7      1012.513 7        42.478               
G28  25801442.213 7 135587460.936 7      -628.423 7        42.101               
> 2024 12 27 02 45 35.0000000  0  5                                             
G29  27813151.132 6 146159102.868 6       201.376 6        40.302               
G32  25077942.574 7 131785512.799 7      -505.789 7        43.732               
G31  25431092.042 7 133641280.407 7       181.238 7        44.954               
G26  24356895.780 7 127996288.524 7      1016.643 7        42.411               
G28  25801561.221 7 135588086.295 7      -628.519 7        42.485               
> 2024 12 27 02 45 36.0000000  0  5                                             
G29  27813120.862 6 146158901.550 6       200.923 6        41.127               
G32  25078035.404 7 131786014.981 7      -499.136 7        44.686               
G31  25431059.735 7 133641098.357 7       184.716 7        44.344               
G26  24356703.045 7 127995270.271 7      1019.625 7        42.563               
G28  25801683.981 7 135588711.687 7      -626.852 7        42.500               
> 2024 12 27 02 45 37.0000000  0  5                                             
G29  27813077.065 6 146158700.689 6       195.508 6        41.465               
G32  25078132.468 7 131786517.590 7      -501.691 7        44.335               
G31  25431025.265 7 133640916.384 7       184.553 7        44.436               
G26  24356504.824 7 127994252.594 7      1014.236 7        43.223               
G28  25801802.167 7 135589337.095 7      -628.338 7        42.585               
> 2024 12 27 02 45 38.0000000  0  5                                             
G29  27813042.685 7 146158500.361 7       200.053 7        42.568               
G32  25078227.317 7 131787020.718 7      -501.711 7        44.256               
G31  25430990.885 7 133640734.608 7       175.570 7        44.421               
G26  24356311.409 7 127993235.555 7      1017.023 7        42.836               
G28  25801921.210 7 135589962.595 7      -625.114 7        42.934               
> 2024 12 27 02 45 39.0000000  0  5                                             
G29  27813003.230 6 146158300.586 6       197.719 6        41.921               
G32  25078324.560 7 131787524.335 7      -499.349 7        44.266               
G31  25430955.380 7 133640553.002 7       182.168 7        44.425               
G26  24356118.299 7 127992219.115 7      1022.790 7        42.514               
G28  25802042.523 7 135590588.155 7      -627.350 7        43.005               
> 2024 12 27 02 45 40.0000000  0  5                                             
G29  27812971.727 7 146158101.309 7       201.310 7        42.099               
G32  25078421.500 7 131788028.431 7      -504.221 7        43.740               
G31  25430918.605 7 133640371.520 7       181.308 7        44.008               
G26  24355925.295 7 127991203.298 7      1015.252 7        42.352               
G28  25802160.495 7 135591213.775 7      -628.711 7        42.507               
> 2024 12 27 02 45 41.0000000  0  5                                             
G29  27812924.231 6 146157902.554 6       193.018 6        41.789               
G32  25078516.420 7 131788532.989 7      -505.583 7        43.576               
G31  25430884.047 7 133640190.176 7       182.790 7        43.839               
G26  24355734.008 7 127990188.012 7      1014.373 7        42.732               
G28  25802281.289 7 135591839.436 7      -631.862 7        42.545               
> 2024 12 27 02 45 42.0000000  0  5                                             
G29  27812886.492 6 146157704.285 6       192.489 6        41.623               
G32  25078614.056 7 131789037.993 7      -500.997 7        43.940               
G31  25430848.845 7 133640008.969 7       178.025 7        43.217               
G26  24355541.004 7 127989173.317 7      1016.105 7        42.480               
G28  25802400.529 7 135592465.123 7      -625.479 7        42.652               
> 2024 12 27 02 45 45.0000000  0  5                                             
G29  27812768.824 6 146157112.394 6       194.459 6        40.832               
G32  25078904.714 7 131790555.765 7      -507.139 7        43.413               
G31  25430748.331 7 133639466.049 7       180.534 7        43.667               
G26  24354960.493 7 127986132.674 7      1014.093 7        42.592               
G28  25802758.535 7 135594342.368 7      -626.869 7        43.275               
> 2024 12 27 02 45 46.0000000  0  5                                             
G29  27812734.373 6 146156916.088 6       195.218 6        40.527               
G32  25079001.564 7 131791062.587 7      -509.939 7        44.199               
G31  25430711.610 7 133639285.325 7       178.290 7        43.622               
G26  24354772.297 7 127985120.268 7      1009.201 7        42.445               
G28  25802877.042 7 135594968.159 7      -619.262 7        42.665               
> 2024 12 27 02 45 47.0000000  0  5                                             
G29  27812689.021 6 146156720.258 6       196.197 6        40.011               
G32  25079096.037 7 131791569.873 7      -509.321 7        43.989               
G31  25430676.426 7 133639104.726 7       183.617 7        43.839               
G26  24354575.255 7 127984108.422 7      1011.134 7        42.591               
G28  25802992.923 7 135595593.987 7      -623.962 7        42.554               
> 2024 12 27 02 45 48.0000000  0  5                                             
G29  27812648.476 6 146156524.943 6       198.299 6        39.371               
G32  25079197.033 7 131792077.584 7      -509.974 7        43.451               
G31  25430642.743 7 133638924.253 7       181.202 7        43.433               
G26  24354381.680 7 127983097.162 7      1009.164 7        42.525               
G28  25803114.111 7 135596219.848 7      -621.973 7        43.266               
> 2024 12 27 02 45 49.0000000  0  5                                             
G29  27812603.303 6 146156330.120 6       192.369 6        39.303               
G32  25079287.361 7 131792585.762 7      -504.096 7        43.477               
G31  25430605.075 7 133638743.897 7       180.089 7        44.183               
G26  24354186.443 7 127982086.440 7      1011.943 7        42.400               
G28  25803233.172 7 135596845.744 7      -625.070 7        42.654               
> 2024 12 27 02 45 50.0000000  0  5                                             
G29  27812569.638 6 146156135.792 6       194.877 6        39.049               
G32  25079386.266 7 131793094.426 7      -513.235 7        42.814               
G31  25430573.000 7 133638563.675 7       178.925 7        44.059               
G26  24353992.135 7 127981076.348 7      1011.709 7        42.428               
G28  25803353.145 7 135597471.667 7      -630.086 7        42.960               
> 2024 12 27 02 45 51.0000000  0  5                                             
G29  27812533.686 6 146155941.976 6       190.324 6        39.040               
G32  25079482.223 7 131793603.499 7      -508.187 7        42.187               
G31  25430541.069 7 133638383.589 7       174.753 7        43.413               
G26  24353799.507 7 127980066.782 7      1013.345 7        42.319               
G28  25803467.524 7 135598097.624 7      -627.073 7        43.283               
> 2024 12 27 02 45 52.0000000  0  5                                             
G29  27812501.611 6 146155748.646 6       185.495 6        38.655               
G32  25079579.448 7 131794113.071 7      -508.931 7        42.568               
G31  25430502.346 7 133638203.629 7       178.294 7        43.554               
G26  24353607.969 6 127979057.819 6      1009.165 6        41.566               
G28  25803587.193 7 135598723.622 7      -629.719 7        42.837               
> 2024 12 27 02 45 53.0000000  0  5                                             
G29  27812460.423 6 146155555.780 6       191.683 6        39.093               
G32  25079671.509 7 131794623.080 7      -505.758 7        43.000               
G31  25430468.931 7 133638023.770 7       181.779 7        43.879               
G26  24353413.626 6 127978049.416 6      1009.335 6        41.733               
G28  25803703.913 7 135599349.629 7      -624.246 7        42.781               
> 2024 12 27 02 45 54.0000000  0  5                                             
G29  27812429.992 6 146155363.421 6       196.237 6        39.261               
G32  25079765.751 7 131795133.531 7      -511.513 7        42.864               
G31  25430432.800 7 133637844.057 7       182.542 7        43.967               
G26  24353222.945 6 127977041.587 6      1013.433 6        41.359               
G28  25803823.100 7 135599975.695 7      -628.374 7        42.390               
> 2024 12 27 02 45 55.0000000  0  5                                             
G29  27812397.506 6 146155171.550 6       194.883 6        40.441               
G32  25079861.207 7 131795644.465 7      -510.383 7        42.714               
G31  25430399.331 7 133637664.477 7       179.796 7        44.001               
G26  24353027.119 6 127976034.352 6      1003.128 6        40.658               
G28  25803944.824 7 135600601.786 7      -633.223 7        42.260               
> 2024 12 27 02 45 56.0000000  0  5                                             
G29  27812367.182 6 146154980.199 6       191.178 6        41.112               
G32  25079961.345 7 131796155.861 7      -512.453 7        42.970               
G31  25430365.166 7 133637485.016 7       177.420 7        43.834               
G26  24352834.240 6 127975027.668 6      1012.719 6        40.384               
G28  25804062.384 6 135601227.907 6      -628.433 6        41.814               
> 2024 12 27 02 45 57.0000000  0  5                                             
G29  27812331.569 6 146154789.316 6       193.670 6        41.285               
G32  25080052.405 7 131796667.701 7      -513.242 7        43.186               
G31  25430331.179 7 133637305.691 7       177.343 7        43.078               
G26  24352639.272 6 127974021.569 6      1006.513 6        40.538               
G28  25804174.959 6 135601854.045 6      -625.951 6        41.781               
> 2024 12 27 02 45 58.0000000  0  5                                             
G29  27812300.942 6 146154598.946 6       187.826 6        41.551               
G32  25080154.777 7 131797180.011 7      -509.201 7        43.278               
G31  25430296.602 7 133637126.484 7       182.638 7        43.175               
G26  24352446.518 6 127973016.055 6      1004.989 6        40.098               
G28  25804295.878 6 135602480.259 6      -631.808 6        41.233               
> 2024 12 27 02 45 59.0000000  0  5                                             
G29  27812272.869 6 146154409.090 6       192.682 6        41.905               
G32  25080254.147 7 131797692.781 7      -512.962 7        42.925               
G31  25430262.776 7 133636947.443 7       174.279 7        43.363               
G26  24352254.248 6 127972011.127 6      1004.779 6        40.394               
G28  25804414.547 6 135603106.510 6      -633.886 6        41.058               
> 2024 12 27 02 46 00.0000000  0  5                                             
G29  27812232.879 6 146154219.704 6       189.119 6        41.813               
G32  25080348.692 7 131798206.031 7      -514.113 7        42.766               
G31  25430229.522 7 133636768.506 7       181.026 7        43.218               
G26  24352071.054 6 127971006.777 6       997.737 6        39.936               
G28  25804536.449 6 135603732.774 6      -629.516 6        40.650               
> 2024 12 27 02 46 01.0000000  0  5                                             
G29  27812194.407 7 146154030.863 7       186.327 7        42.164               
G32  25080444.488 7 131798719.737 7      -513.403 7        42.728               
G31  25430196.357 7 133636589.726 7       178.313 7        43.139               
G26  24351871.457 6 127970003.004 6      1005.673 6        40.256               
G28  25804651.168 6 135604359.115 6      -626.822 6        40.619               
> 2024 12 27 02 46 02.0000000  0  5                                             
G29  27812158.418 7 146153842.507 7       185.516 7        42.062               
G32  25080544.590 7 131799233.947 7      -515.158 7        43.327               
G31  25430162.692 7 133636411.096 7       177.071 7        42.845               
G26  24351684.798 6 127968999.897 6      1002.514 6        40.114               
G28  25804770.319 6 135604985.499 6      -629.790 6        40.765               
> 2024 12 27 02 46 03.0000000  0  5                                             
G29  27812120.018 6 146153654.676 6       180.799 6        41.320               
G32  25080644.442 7 131799748.591 7      -514.549 7        43.576               
G31  25430125.185 7 133636232.602 7       179.316 7        42.867               
G26  24351489.346 6 127967997.306 6      1006.561 6        40.038               
G28  25804889.988 6 135605611.930 6      -627.999 6        40.026               
> 2024 12 27 02 46 04.0000000  0  5                                             
G29  27812082.904 6 146153467.360 6       187.395 6        41.315               
G32  25080744.776 7 131800263.732 7      -518.096 7        43.973               
G31  25430097.256 7 133636054.251 7       178.024 7        43.176               
G26  24351299.577 6 127966995.342 6      1003.932 6        40.059               
G28  25805006.994 6 135606238.412 6      -632.323 6        40.137               
> 2024 12 27 02 46 05.0000000  0  5                                             
G29  27812044.468 6 146153280.547 6       189.547 6        40.874               
G32  25080841.430 7 131800779.332 7      -518.216 7        44.029               
G31  25430056.300 7 133635876.034 7       178.381 7        43.123               
G26  24351106.949 6 127965993.920 6      1002.736 6        39.754               
G28  25805126.860 6 135606864.893 6      -627.402 6        39.520               
> 2024 12 27 02 46 06.0000000  0  5                                             
G29  27812005.138 6 146153094.243 6       184.542 6        40.639               
G32  25080943.891 7 131801295.387 7      -517.733 7        43.559               
G31  25430024.439 7 133635697.953 7       173.060 7        42.771               
G26  24350920.700 6 127964993.069 6      1001.898 6        40.004               
G28  25805243.562 6 135607491.467 6      -621.373 6        39.741               
> 2024 12 27 02 46 07.0000000  0  5                                             
G29  27811962.234 6 146152908.430 6       183.825 6        39.643               
G32  25081044.190 7 131801811.875 7      -512.205 7        43.891               
G31  25429992.936 7 133635519.961 7       174.953 7        43.273               
G26  24350732.414 6 127963992.804 6      1004.138 6        40.218               
G28  25805359.336 6 135608118.033 6      -633.007 6        39.895               
> 2024 12 27 02 46 08.0000000  0  5                                             
G29  27811925.960 6 146152723.114 6       184.512 6        39.057               
G32  25081140.736 7 131802328.861 7      -514.377 7        43.763               
G31  25429962.380 7 133635342.115 7       178.143 7        43.630               
G26  24350543.575 6 127962993.131 6      1005.803 6        40.342               
G28  25805475.556 6 135608744.656 6      -633.007 6        40.145               
> 2024 12 27 02 46 09.0000000  0  5                                             
G29  27811890.472 6 146152538.301 6       179.589 6        38.578               
G32  25081237.747 7 131802846.293 7      -523.161 7        43.886               
G31  25429925.016 7 133635164.411 7       178.112 7        43.568               
G26  24350355.896 6 127961994.027 6      1002.788 6        41.057               
G28  25805599.835 6 135609371.290 6      -627.806 6        40.363               
> 2024 12 27 02 46 10.0000000  0  5                                             
G29  27811854.037 6 146152353.996 6       182.925 6        37.872               
G32  25081336.581 7 131803364.179 7      -517.527 7        44.004               
G31  25429892.048 7 133634986.826 7       175.621 7        43.356               
G26  24350167.289 6 127960995.488 6      1002.832 6        41.036               
G28  25805714.393 6 135609997.972 6      -626.527 6        40.046               
> 2024 12 27 02 46 11.0000000  0  5                                             
G29  27811814.600 6 146152170.162 6       180.179 6        38.232               
G32  25081435.021 7 131803882.521 7      -519.508 7        43.738               
G31  25429861.009 7 133634809.356 7       176.053 7        43.355               
G26  24349973.624 6 127959997.539 6      1005.109 6        40.633               
G28  25805831.435 6 135610624.682 6      -626.026 6        39.326               
> 2024 12 27 02 46 12.0000000  0  5                                             
G29  27811786.761 6 146151986.837 6       185.951 6        38.715               
G32  25081535.177 7 131804401.303 7      -519.626 7        43.870               
G31  25429818.874 7 133634631.997 7       176.302 7        42.985               
G26  24349785.624 6 127959000.157 6      1000.007 6        41.397               
G28  25805950.621 6 135611251.406 6      -628.337 6        39.203               
> 2024 12 27 02 46 13.0000000  0  5                                             
G29  27811754.346 6 146151803.989 6       181.070 6        38.892               
G32  25081630.794 7 131804920.563 7      -514.723 7        44.106               
G31  25429786.996 7 133634454.783 7       175.073 7        42.653               
G26  24349599.786 6 127958003.316 6       996.812 6        41.171               
G28  25806066.967 6 135611878.164 6      -620.414 6        39.343               
> 2024 12 27 02 46 14.0000000  0  5                                             
G29  27811723.111 6 146151621.624 6       177.949 6        39.038               
G32  25081732.147 7 131805440.263 7      -516.015 7        43.904               
G31  25429750.489 7 133634277.678 7       179.208 7        42.959               
G26  24349411.912 6 127957007.098 6       998.171 6        41.582               
G28  25806186.010 6 135612504.926 6      -623.035 6        39.303               
> 2024 12 27 02 46 15.0000000  0  5                                             
G29  27811698.005 6 146151439.780 6       179.514 6        39.836               
G32  25081832.821 7 131805960.441 7      -523.323 7        44.278               
G31  25429725.759 7 133634100.723 7       177.059 7        43.126               
G26  24349233.704 6 127956011.429 6       993.280 6        41.670               
G28  25806310.611 6 135613131.793 6      -624.755 6        39.485               
> 2024 12 27 02 46 16.0000000  0  5                                             
G29  27811655.656 6 146151258.456 6       182.957 6        39.655               
G32  25081932.119 7 131806481.100 7      -519.939 7        43.481               
G31  25429683.695 7 133633923.928 7       174.111 7        42.643               
G26  24349040.558 7 127955016.377 7       995.057 7        42.006               
G28  25806430.208 6 135613758.676 6      -621.305 6        39.381               
> 2024 12 27 02 46 17.0000000  0  5                                             
G29  27811626.583 6 146151077.619 6       180.903 6        39.796               
G32  25082033.169 7 131807002.235 7      -522.552 7        43.435               
G31  25429655.015 7 133633747.238 7       172.147 7        42.182               
G26  24348847.233 7 127954021.910 7       992.150 7        42.261               
G28  25806546.250 6 135614385.618 6      -625.751 6        39.344               
> 2024 12 27 02 46 18.0000000  0  5                                             
G29  27811590.952 6 146150897.310 6       184.163 6        39.985               
G32  25082129.286 7 131807523.835 7      -521.543 7        43.945               
G31  25429617.151 7 133633570.726 7       187.126 7        42.198               
G26  24348661.395 7 127953028.047 7       987.961 7        42.107               
G28  25806667.509 6 135615012.605 6      -625.973 6        39.738               
> 2024 12 27 02 46 19.0000000  0  5                                             
G29  27811563.112 6 146150717.496 6       178.804 6        40.446               
G32  25082231.872 7 131808045.880 7      -521.044 7        44.229               
G31  25429587.345 6 133633394.332 6       180.680 6        41.998               
G26  24348470.482 6 127952034.716 6       985.825 6        41.705               
G28  25806782.174 6 135615639.631 6      -623.240 6        39.758               
> 2024 12 27 02 46 20.0000000  0  5                                             
G29  27811529.840 6 146150538.161 6       181.203 6        40.347               
G32  25082331.867 7 131808568.406 7      -524.244 7        44.047               
G31  25429554.234 6 133633218.071 6       179.207 6        41.827               
G26  24348278.479 7 127951042.000 7       989.661 7        42.183               
G28  25806901.057 6 135616266.684 6      -632.854 6        40.070               
> 2024 12 27 02 46 21.0000000  0  5                                             
G29  27811492.744 6 146150359.360 6       178.476 6        40.705               
G32  25082430.415 7 131809091.405 7      -525.368 7        43.819               
G31  25429519.371 6 133633041.925 6       174.958 6        41.688               
G26  24348091.105 6 127950049.854 6       991.641 6        41.853               
G28  25807026.819 6 135616893.760 6      -626.659 6        40.094               
> 2024 12 27 02 46 22.0000000  0  5                                             
G29  27811463.260 6 146150181.068 6       179.322 6        40.205               
G32  25082528.587 7 131809614.871 7      -525.534 7        43.791               
G31  25429485.116 6 133632865.932 6       175.245 6        41.458               
G26  24347899.996 7 127949058.286 7       994.977 7        42.131               
G28  25807142.861 6 135617520.915 6      -629.118 6        39.981               
> 2024 12 27 02 46 23.0000000  0  5                                             
G29  27811424.055 6 146150003.291 6       175.342 6        40.698               
G32  25082628.064 7 131810138.810 7      -528.105 7        43.814               
G31  25429450.540 6 133632690.087 6       172.383 6        41.352               
G26  24347714.926 7 127948067.341 7       990.440 7        42.051               
G28  25807266.925 6 135618148.098 6      -631.632 6        40.271               
> 2024 12 27 02 46 24.0000000  0  5                                             
G29  27811393.946 6 146149826.005 6       180.248 6        40.549               
G32  25082728.167 7 131810663.199 7      -520.876 7        43.649               
G31  25429421.396 6 133632514.345 6       175.664 6        41.094               
G26  24347526.354 7 127947076.943 7       993.813 7        42.029               
G28  25807380.697 6 135618775.331 6      -630.681 6        40.219               
> 2024 12 27 02 46 25.0000000  0  5                                             
G29  27811360.781 6 146149649.225 6       178.913 6        40.576               
G32  25082826.536 7 131811188.072 7      -517.459 7        43.355               
G31  25429386.694 6 133632338.759 6       173.573 6        40.384               
G26  24347334.620 7 127946087.158 7       986.244 7        42.686               
G28  25807501.313 6 135619402.595 6      -624.015 6        40.021               
> 2024 12 27 02 46 26.0000000  0  5                                             
G29  27811319.092 6 146149472.937 6       178.958 6        40.516               
G32  25082926.012 7 131811713.406 7      -527.924 7        44.553               
G31  25429356.049 6 133632163.292 6       183.736 6        41.122               
G26  24347150.676 7 127945097.918 7       986.242 7        42.133               
G28  25807622.251 6 135620029.886 6      -629.650 6        40.583               
> 2024 12 27 02 46 27.0000000  0  5                                             
G29  27811286.392 6 146149297.179 6       175.879 6        39.998               
G32  25083024.292 7 131812239.184 7      -526.146 7        43.458               
G31  25429312.073 6 133631987.983 6       169.083 6        41.465               
G26  24346963.784 7 127944109.288 7       984.246 7        42.250               
G28  25807741.187 6 135620657.238 6      -627.663 6        40.761               
> 2024 12 27 02 46 28.0000000  0  5                                             
G29  27811251.422 6 146149121.917 6       172.231 6        39.949               
G32  25083129.308 7 131812765.447 7      -520.975 7        43.932               
G31  25429286.735 6 133631812.807 6       178.744 6        41.637               
G26  24346776.731 7 127943121.228 7       988.168 7        42.779               
G28  25807865.645 6 135621284.616 6      -625.368 6        40.663               
> 2024 12 27 02 46 29.0000000  0  5                                             
G29  27811216.989 6 146148947.164 6       174.698 6        39.886               
G32  25083227.713 7 131813292.185 7      -525.136 7        44.072               
G31  25429252.712 6 133631637.738 6       173.695 6        41.274               
G26  24346586.122 7 127942133.750 7       992.651 7        42.529               
G28  25807986.886 6 135621912.067 6      -625.004 6        40.353               
> 2024 12 27 02 46 30.0000000  0  5                                             
G29  27811182.234 6 146148772.915 6       171.872 6        38.949               
G32  25083331.067 7 131813819.387 7      -526.334 7        43.806               
G31  25429216.920 6 133631462.817 6       176.320 6        41.561               
G26  24346396.710 7 127941146.870 7       986.814 7        43.129               
G28  25808106.144 6 135622539.533 6      -629.281 6        40.936               
> 2024 12 27 02 46 31.0000000  0  5                                             
G29  27811140.777 6 146148599.171 6       170.084 6        38.138               
G32  25083431.599 7 131814347.047 7      -528.193 7        44.499               
G31  25429182.362 6 133631288.036 6       172.644 6        41.555               
G26  24346218.253 7 127940160.561 7       981.960 7        42.502               
G28  25808222.846 6 135623167.026 6      -621.925 6        41.180               
> 2024 12 27 02 46 32.0000000  0  5                                             
G29  27811109.435 6 146148425.947 6       172.574 6        38.264               
G32  25083534.488 7 131814875.160 7      -530.845 7        44.557               
G31  25429149.375 6 133631113.351 6       173.384 6        41.275               
G26  24346031.360 7 127939174.822 7       987.548 7        43.006               
G28  25808345.231 6 135623794.561 6      -624.467 6        40.650               
> 2024 12 27 02 46 33.0000000  0  5                                             
G29  27811074.573 6 146148253.174 6       168.704 6        38.649               
G32  25083636.717 7 131815403.714 7      -529.326 7        44.602               
G31  25429113.119 6 133630938.791 6       178.749 6        40.612               
G26  24345838.429 7 127938189.647 7       979.596 7        43.135               
G28  25808471.476 6 135624422.134 6      -627.250 6        40.867               
> 2024 12 27 02 46 34.0000000  0  5                                             
G29  27811041.837 6 146148080.921 6       172.831 6        38.251               
G32  25083736.247 7 131815932.734 7      -532.173 7        44.206               
G31  25429082.527 6 133630764.358 6       175.695 6        40.890               
G26  24345654.110 7 127937205.056 7       990.543 7        42.628               
G28  25808584.730 6 135625049.727 6      -631.359 6        41.167               
> 2024 12 27 02 46 36.0000000  0  6                                             
G29  27810985.942 6 146147737.951 6       175.873 6        39.340               
G32  25083937.453 7 131816992.186 7      -530.518 7        44.460               
G31  25429014.947 6 133630415.896 6       167.434 6        40.668               
G26  24345274.625 7 127935237.616 7       978.265 7        43.087               
G28  25808830.375 6 135626305.039 6      -620.317 6        41.309               
G16  26155080.381 7 137445881.911 7      3112.994 7        42.943               
> 2024 12 27 02 46 37.0000000  0  6                                             
G29  27810956.941 6 146147567.190 6       172.580 6        39.968               
G32  25084035.178 7 131817522.601 7      -532.853 7        44.052               
G31  25428979.548 6 133630241.836 6       173.894 6        40.409               
G26  24345089.752 7 127934254.765 7       982.543 7        43.259               
G28  25808952.689 6 135626932.743 6      -628.445 6        41.563               
G16  26154488.452 7 137442769.197 7      3117.077 7        43.149               
> 2024 12 27 02 46 38.0000000  0  6                                             
G29  27810929.298 6 146147396.936 6       169.678 6        40.417               
G32  25084134.101 7 131818053.488 7      -527.914 7        43.976               
G31  25428946.991 6 133630067.933 6       170.763 6        40.312               
G26  24344899.108 7 127933272.498 7       981.876 7        43.329               
G28  25809072.483 6 135627560.479 6      -633.008 6        41.311               
G16  26153898.988 7 137439656.901 7      3114.352 7        43.615               
> 2024 12 27 02 46 39.0000000  0  6                                             
G29  27810897.937 6 146147227.208 6       170.383 6        40.294               
G32  25084235.294 7 131818584.835 7      -535.619 7        43.407               
G31  25428911.735 6 133629894.149 6       178.804 6        40.537               
G26  24344710.697 7 127932290.794 7       985.491 7        43.068               
G28  25809189.346 6 135628188.279 6      -626.845 6        41.656               
G16  26153304.558 7 137436544.986 7      3110.487 7        43.257               
> 2024 12 27 02 46 40.0000000  0  6                                             
G29  27810869.454 6 146147057.954 6       168.418 6        40.077               
G32  25084335.664 7 131819116.624 7      -533.575 7        43.182               
G31  25428880.661 6 133629720.490 6       172.553 6        40.956               
G26  24344526.145 7 127931309.686 7       981.242 7        42.924               
G28  25809309.658 6 135628816.082 6      -629.454 6        41.243               
G16  26152709.716 7 137433433.450 7      3110.921 7        43.900               
> 2024 12 27 02 46 41.0000000  0  6                                             
G29  27810837.219 6 146146889.219 6       164.010 6        40.286               
G32  25084441.270 7 131819648.884 7      -530.001 7        43.027               
G31  25428846.370 6 133629546.953 6       171.019 6        41.181               
G26  24344340.415 7 127930329.126 7       976.315 7        42.958               
G28  25809431.829 6 135629443.933 6      -628.258 6        41.667               
G16  26152118.930 7 137430322.290 7      3108.124 7        43.690               
> 2024 12 27 02 46 42.0000000  0  6                                             
G29  27810805.519 6 146146720.984 6       165.107 6        40.391               
G32  25084540.228 7 131820181.623 7      -534.150 7        42.877               
G31  25428816.082 6 133629373.540 6       175.106 6        41.463               
G26  24344154.094 7 127929349.174 7       973.774 7        42.685               
G28  25809551.944 6 135630071.829 6      -630.957 6        41.713               
G16  26151529.252 7 137427211.537 7      3113.545 7        43.410               
> 2024 12 27 02 46 44.0000000  0  6                                             
G29  27810741.405 6 146146385.978 6       167.370 6        40.124               
G32  25084746.401 7 131821248.453 7      -535.655 7        43.618               
G31  25428750.021 6 133629027.138 6       169.205 6        41.174               
G26  24343778.416 7 127927390.980 7       979.693 7        42.423               
G28  25809793.283 7 135631327.720 7      -623.814 7        42.224               
G16  26150343.107 7 137420991.207 7      3111.936 7        43.244               
> 2024 12 27 02 46 46.0000000  0  6                                             
G29  27810668.463 6 146146053.055 6       162.924 6        39.553               
G32  25084949.947 7 131822317.170 7      -533.822 7        43.640               
G31  25428689.731 6 133628681.255 6       173.977 6        41.191               
G26  24343405.168 7 127925435.126 7       976.821 7        42.183               
G28  25810026.867 7 135632583.757 7      -625.862 7        42.361               
G16  26149161.285 7 137414772.421 7      3109.574 7        43.033               
> 2024 12 27 02 46 47.0000000  0  6                                             
G29  27810629.795 6 146145887.297 6       162.047 6        39.055               
G32  25085051.211 7 131822852.208 7      -537.396 7        43.843               
G31  25428654.529 6 133628508.479 6       170.068 6        40.959               
G26  24343216.971 7 127924458.052 7       979.618 7        42.017               
G28  25810148.841 6 135633211.819 6      -631.189 6        41.729               
G16  26148570.696 7 137411663.587 7      3111.678 7        42.886               
> 2024 12 27 02 46 48.0000000  0  6                                             
G29  27810592.699 6 146145722.104 6       164.592 6        38.409               
G32  25085151.385 7 131823387.742 7      -540.861 7        43.697               
G31  25428621.650 6 133628335.870 6       173.676 6        40.867               
G26  24343027.703 7 127923481.577 7       973.580 7        42.036               
G28  25810268.635 6 135633839.959 6      -623.293 6        41.951               
G16  26147973.281 7 137408555.175 7      3106.212 7        42.936               
> 2024 12 27 02 46 49.0000000  0  6                                             
G29  27810565.681 6 146145557.366 6       168.372 6        38.869               
G32  25085251.112 7 131823923.711 7      -537.398 7        43.350               
G31  25428587.806 6 133628163.397 6       170.787 6        41.496               
G26  24342845.278 6 127922505.664 6       983.532 6        41.908               
G28  25810384.623 7 135634468.099 7      -630.319 7        42.085               
G16  26147387.195 7 137405447.150 7      3103.462 7        42.894               
> 2024 12 27 02 46 51.0000000  0  6                                             
G29  27810503.157 6 146145229.450 6       166.499 6        38.696               
G32  25085457.981 7 131824997.057 7      -540.299 7        43.230               
G31  25428525.550 6 133627818.807 6       166.962 6        40.457               
G26  24342472.852 7 127920555.598 7       977.249 7        42.215               
G28  25810630.376 7 135635724.501 7      -629.072 7        42.236               
G16  26146198.816 7 137399232.238 7      3107.959 7        42.556               
> 2024 12 27 02 46 56.0000000  0  6                                             
G29  27810351.789 6 146144418.280 6       164.934 6        38.574               
G32  25085967.016 6 131827688.407 6      -538.221 6        41.655               
G31  25428362.763 6 133626959.489 6       169.205 6        41.303               
G26  24341549.416 7 127915690.458 7       971.509 7        42.558               
G28  25811226.593 7 135638866.068 7      -628.087 7        42.428               
G16  26143247.318 7 137383701.691 7      3104.872 7        43.066               
> 2024 12 27 02 46 57.0000000  0  6                                             
G29  27810328.881 6 146144257.562 6       162.280 6        38.771               
G32  25086067.101 7 131828228.066 7      -541.192 7        42.156               
G31  25428327.257 6 133626788.021 6       165.428 6        40.773               
G26  24341362.810 6 127914719.120 6       971.325 6        41.709               
G28  25811346.405 6 135639494.497 6      -626.154 6        41.876               
G16  26142654.209 7 137380596.759 7      3101.748 7        42.907               
> 2024 12 27 02 46 59.0000000  0  6                                             
G29  27810266.589 6 146143937.636 6       155.478 6        39.392               
G32  25086273.113 7 131829308.813 7      -538.385 7        42.544               
G31  25428261.410 6 133626445.486 6       171.617 6        40.870               
G26  24340995.495 6 127912778.316 6       971.870 6        41.756               
G28  25811586.922 7 135640751.449 7      -622.559 7        42.481               
G16  26141473.996 7 137374388.072 7      3101.061 7        42.932               
> 2024 12 27 02 47 01.0000000  0  6                                             
G29  27810205.352 6 146143619.713 6       158.230 6        39.417               
G32  25086479.411 7 131830391.401 7      -540.343 7        42.235               
G31  25428197.921 6 133626103.440 6       169.545 6        41.535               
G26  24340619.977 6 127910839.796 6       968.483 6        41.747               
G28  25811825.795 7 135642008.551 7      -632.032 7        42.407               
G16  26140291.656 7 137368180.945 7      3101.883 7        42.508               
> 2024 12 27 02 47 04.0000000  0  6                                             
G29  27810112.094 6 146143146.612 6       156.230 6        39.754               
G32  25086786.579 7 131832018.774 7      -541.962 7        42.487               
G31  25428104.359 6 133625591.365 6       173.268 6        41.615               
G26  24340073.507 7 127907936.361 7       965.917 7        42.013               
G28  25812185.588 7 135643894.457 7      -621.966 7        42.506               
G16  26138518.495 6 137358873.161 6      3098.711 6        41.935               
> 2024 12 27 02 47 05.0000000  0  6                                             
G29  27810081.555 6 146142989.900 6       152.733 6        39.336               
G32  25086888.021 7 131832562.174 7      -542.647 7        42.061               
G31  25428072.606 6 133625420.932 6       171.351 6        41.541               
G26  24339888.366 6 127906969.709 6       960.177 6        41.931               
G28  25812301.898 7 135644523.190 7      -632.982 7        42.323               
G16  26137926.887 6 137355771.365 6      3102.104 6        41.622               
> 2024 12 27 02 47 06.0000000  0  6                                             
G29  27810056.646 6 146142833.746 6       156.314 6        39.440               
G32  25086991.644 7 131833106.031 7      -543.204 7        42.229               
G31  25428040.960 6 133625250.652 6       175.704 6        41.744               
G26  24339707.013 6 127906003.657 6       966.182 6        41.829               
G28  25812425.480 7 135645151.959 7      -622.698 7        42.059               
G16  26137338.353 6 137352669.964 6      3098.052 6        41.373               
> 2024 12 27 02 47 07.0000000  0  6                                             
G29  27810022.570 6 146142678.069 6       157.625 6        39.699               
G32  25087098.715 7 131833650.352 7      -543.610 7        42.339               
G31  25428015.193 7 133625080.515 7       172.516 7        42.226               
G26  24339521.318 6 127905038.170 6       960.240 6        41.800               
G28  25812544.005 6 135645780.767 6      -630.804 6        41.416               
G16  26136747.639 6 137349568.957 6      3097.496 6        41.422               
> 2024 12 27 02 47 08.0000000  0  6                                             
G29  27809993.783 6 146142522.917 6       157.843 6        39.071               
G32  25087201.426 7 131834195.163 7      -541.375 7        42.691               
G31  25427980.670 6 133624910.476 6       171.416 6        41.864               
G26  24339339.143 6 127904073.252 6       973.833 6        41.477               
G28  25812658.277 6 135646409.632 6      -631.731 6        41.210               
G16  26136156.371 6 137346468.342 6      3098.539 6        41.681               
> 2024 12 27 02 47 09.0000000  0  6                                             
G29  27809963.834 6 146142368.237 6       158.055 6        39.226               
G32  25087310.642 7 131834740.412 7      -546.846 7        42.680               
G31  25427947.005 7 133624740.590 7       170.865 7        42.033               
G26  24339150.339 6 127903108.944 6       971.246 6        41.027               
G28  25812776.999 6 135647038.504 6      -626.974 6        41.564               
G16  26135558.974 6 137343368.124 6      3104.352 6        41.232               
> 2024 12 27 02 47 10.0000000  0  6                                             
G29  27809927.882 6 146142214.088 6       148.209 6        39.574               
G32  25087414.729 7 131835286.130 7      -546.649 7        43.092               
G31  25427914.930 7 133624570.816 7       172.033 7        42.236               
G26  24338968.111 6 127902145.235 6       963.912 6        41.367               
G28  25812898.151 7 135647667.401 7      -626.450 7        42.027               
G16  26134972.995 6 137340268.286 6      3101.058 6        40.692               
> 2024 12 27 02 47 11.0000000  0  6                                             
G29  27809910.263 6 146142060.445 6       152.408 6        39.164               
G32  25087520.853 7 131835832.335 7      -547.034 7        43.481               
G31  25427876.422 7 133624401.161 7       177.748 7        42.098               
G26  24338787.955 6 127901182.072 6       959.198 6        41.862               
G28  25813016.373 6 135648296.348 6      -627.916 6        41.765               
G16  26134383.996 6 137337168.857 6      3097.814 6        40.566               
> 2024 12 27 02 47 12.0000000  0  6                                             
G29  27809880.672 6 146141907.293 6       148.558 6        39.403               
G32  25087628.389 7 131836378.996 7      -545.567 7        43.311               
G31  25427849.904 7 133624231.665 7       168.382 7        42.174               
G26  24338603.136 6 127900219.502 6       957.646 6        41.954               
G28  25813137.167 6 135648925.353 6      -628.993 6        41.965               
G16  26133789.494 6 137334069.825 6      3098.218 6        40.646               
> 2024 12 27 02 47 13.0000000  0  6                                             
G29  27809842.039 6 146141754.657 6       156.455 6        39.267               
G32  25087731.993 7 131836926.120 7      -546.158 7        43.714               
G31  25427813.845 6 133624062.281 6       171.980 6        41.631               
G26  24338422.498 7 127899257.507 7       962.596 7        42.015               
G28  25813254.620 7 135649554.376 7      -630.971 7        42.093               
G16  26133201.603 6 137330971.147 6      3100.568 6        40.531               
> 2024 12 27 02 47 14.0000000  0  6                                             
G29  27809815.093 6 146141602.493 6       152.460 6        38.943               
G32  25087837.653 7 131837473.704 7      -549.456 7        43.693               
G31  25427783.574 6 133623893.025 6       168.123 6        41.870               
G26  24338239.305 7 127898296.063 7       956.899 7        42.007               
G28  25813371.609 6 135650183.439 6      -630.376 6        41.812               
G16  26132611.085 6 137327872.898 6      3100.271 6        41.084               
> 2024 12 27 02 47 15.0000000  0  6                                             
G29  27809784.322 6 146141450.873 6       152.775 6        38.964               
G32  25087938.934 7 131838021.752 7      -546.985 7        43.719               
G31  25427748.694 7 133623723.890 7       166.627 7        42.210               
G26  24338052.127 6 127897335.244 6       956.302 6        41.724               
G28  25813488.061 6 135650812.523 6      -626.074 6        41.713               
G16  26132023.248 6 137324775.006 6      3104.399 6        40.538               
> 2024 12 27 02 47 16.0000000  0  6                                             
G29  27809749.871 6 146141299.694 6       143.943 6        38.839               
G32  25088045.916 7 131838570.242 7      -548.181 7        44.143               
G31  25427720.640 6 133623554.874 6       166.818 6        41.834               
G26  24337871.900 6 127896374.956 6       956.949 6        41.501               
G28  25813608.427 6 135651441.639 6      -629.682 6        41.100               
G16  26131434.106 6 137321677.510 6      3098.650 6        39.848               
> 2024 12 27 02 47 17.0000000  0  6                                             
G29  27809730.107 6 146141149.052 6       147.764 6        39.238               
G32  25088147.359 7 131839119.201 7      -550.807 7        43.718               
G31  25427689.512 7 133623385.988 7       172.520 7        42.091               
G26  24337693.245 7 127895415.268 7       958.372 7        42.164               
G28  25813726.023 6 135652070.797 6      -632.981 6        40.202               
G16  26130841.248 6 137318580.400 6      3095.057 6        40.186               
> 2024 12 27 02 47 18.0000000  0  6                                             
G29  27809699.194 6 146140998.940 6       143.111 6        38.951               
G32  25088252.018 7 131839668.651 7      -549.358 7        43.395               
G31  25427654.274 7 133623217.254 7       165.396 7        42.731               
G26  24337513.483 7 127894456.161 7       952.639 7        42.250               
G28  25813845.192 6 135652699.993 6      -631.052 6        40.264               
G16  26130252.178 6 137315483.706 6      3093.704 6        39.655               
> 2024 12 27 02 47 19.0000000  0  6                                             
G29  27809672.766 6 146140849.325 6       146.167 6        39.261               
G32  25088354.211 7 131840218.594 7      -555.892 7        43.257               
G31  25427624.040 7 133623048.675 7       170.290 7        42.595               
G26  24337325.680 6 127893497.655 6       952.100 6        41.864               
G28  25813956.301 6 135653329.250 6      -627.734 6        40.568               
G16  26129670.255 6 137312387.390 6      3093.647 6        39.969               
> 2024 12 27 02 47 20.0000000  0  6                                             
G29  27809637.921 6 146140700.203 6       148.628 6        39.012               
G32  25088457.529 7 131840768.956 7      -553.714 7        42.849               
G31  25427592.287 7 133622880.176 7       171.251 7        42.405               
G26  24337148.115 7 127892539.700 7       961.532 7        42.035               
G28  25814084.386 6 135653958.522 6      -631.181 6        40.286               
G16  26129078.076 6 137309291.472 6      3094.833 6        40.362               
> 2024 12 27 02 47 22.0000000  0  6                                             
G29  27809590.836 6 146140403.429 6       152.263 6        39.294               
G32  25088663.899 7 131841871.065 7      -556.020 7        42.854               
G31  25427528.190 7 133622543.576 7       168.663 7        42.312               
G26  24336786.321 7 127890625.510 7       950.468 7        42.093               
G28  25814318.971 6 135655217.146 6      -628.071 6        39.345               
G16  26127901.972 6 137303100.783 6      3091.587 6        40.758               
> 2024 12 27 02 47 31.0000000  0  6                                             
G29  27809339.366 6 146139093.012 6       142.607 6        40.042               
G32  25089611.975 7 131846853.610 7      -552.653 7        42.770               
G31  25427238.909 7 133621035.183 7       171.548 7        42.523               
G26  24335148.232 7 127882040.383 7       950.587 7        43.041               
G28  25815393.060 6 135660882.804 6      -627.601 6        38.035               
G16  26122603.628 6 137275262.118 6      3088.854 6        40.656               
> 2024 12 27 02 47 32.0000000  0  6                                             
G29  27809309.506 6 146138949.986 6       140.499 6        39.729               
G32  25089716.330 7 131847409.595 7      -553.207 7        42.919               
G31  25427206.298 7 133620868.270 7       166.852 7        42.205               
G26  24334970.149 7 127881089.416 7       949.653 7        42.887               
G28  25815515.088 6 135661512.552 6      -629.175 6        38.031               
G16  26122021.599 6 137272170.923 6      3087.650 6        40.528               
> 2024 12 27 02 47 34.0000000  0  6                                             
G29  27809247.251 6 146138665.382 6       143.080 6        38.861               
G32  25089932.188 7 131848522.942 7      -552.857 7        42.383               
G31  25427143.345 7 133620534.802 7       168.187 7        42.423               
G26  24334606.086 7 127879189.227 7       947.599 7        42.811               
G28  25815754.389 6 135662772.114 6      -629.740 6        39.244               
G16  26120839.688 6 137265989.728 6      3092.019 6        40.467               
> 2024 12 27 02 47 35.0000000  0  6                                             
G29  27809221.359 6 146138523.893 6       136.045 6        39.317               
G32  25090037.026 7 131849080.350 7      -557.274 7        42.810               
G31  25427110.234 6 133620368.285 6       169.181 6        41.940               
G26  24334428.432 7 127878240.009 7       950.892 7        42.534               
G28  25815873.397 6 135663401.995 6      -627.183 6        38.411               
G16  26120252.101 6 137262899.745 6      3091.402 6        40.318               
> 2024 12 27 02 47 36.0000000  0  6                                             
G29  27809195.341 6 146138382.911 6       134.906 6        38.812               
G32  25090145.080 7 131849638.235 7      -558.823 7        43.254               
G31  25427072.370 7 133620201.925 7       167.615 7        42.226               
G26  24334243.631 7 127877291.391 7       949.488 7        42.760               
G28  25815996.801 6 135664031.934 6      -631.244 6        38.517               
G16  26119664.121 6 137259810.164 6      3090.018 6        40.158               
> 2024 12 27 02 47 37.0000000  0  6                                             
G29  27809162.105 6 146138242.431 6       138.941 6        38.465               
G32  25090256.011 7 131850196.587 7      -555.845 7        42.952               
G31  25427042.117 6 133620035.684 6       158.100 6        41.912               
G26  24334066.727 7 127876343.381 7       940.098 7        42.992               
G28  25816125.583 6 135664661.860 6      -624.483 6        38.470               
G16  26119072.763 6 137256720.985 6      3094.774 6        40.210               
> 2024 12 27 02 47 38.0000000  0  6                                             
G29  27809146.326 6 146138102.446 6       139.301 6        39.309               
G32  25090361.563 7 131850755.403 7      -555.406 7        42.878               
G31  25427012.669 6 133619869.572 6       168.464 6        41.577               
G26  24333887.447 7 127875395.932 7       948.280 7        43.154               
G28  25816237.586 6 135665291.903 6      -630.073 6        38.672               
G16  26118481.656 6 137253632.207 6      3087.783 6        39.928               
> 2024 12 27 02 47 39.0000000  0  6                                             
G29  27809118.379 6 146137962.978 6       130.260 6        39.748               
G32  25090469.313 7 131851314.681 7      -563.907 7        43.091               
G31  25426980.701 6 133619703.591 6       167.368 6        41.259               
G26  24333705.398 7 127874449.043 7       943.548 7        43.439               
G28  25816360.417 6 135665921.906 6      -629.771 6        39.666               
G16  26117897.071 6 137250543.785 6      3085.165 6        39.693               
> 2024 12 27 02 47 40.0000000  0  6                                             
G29  27809091.058 6 146137823.988 6       143.990 6        39.800               
G32  25090570.488 6 131851874.436 6      -555.307 6        41.845               
G31  25426948.269 6 133619537.727 6       164.868 6        40.770               
G26  24333526.529 7 127873502.759 7       947.251 7        43.344               
G28  25816481.998 6 135666551.991 6      -630.581 6        39.273               
G16  26117311.664 6 137247455.803 6      3081.508 6        39.993               
> 2024 12 27 02 47 41.0000000  0  6                                             
G29  27809076.226 6 146137685.506 6       139.497 6        40.282               
G32  25090673.610 6 131852434.647 6      -559.879 6        41.982               
G31  25426914.014 6 133619371.993 6       165.216 6        41.196               
G26  24333350.787 7 127872557.036 7       949.615 7        43.445               
G28  25816601.220 6 135667182.089 6      -628.221 6        38.941               
G16  26116724.666 6 137244368.191 6      3082.838 6        39.312               
> 2024 12 27 02 47 46.0000000  0  6                                             
G29  27808942.995 6 146137000.548 6       138.646 6        39.932               
G32  25091205.499 6 131855242.454 6      -561.835 6        41.034               
G31  25426762.646 6 133618545.054 6       165.019 6        41.794               
G26  24332447.937 7 127867836.940 7       947.077 7        43.357               
G28  25817203.067 6 135670332.949 6      -632.515 6        40.688               
G16  26113784.569 6 137228935.855 6      3084.197 6        38.619               
> 2024 12 27 02 47 48.0000000  0  6                                             
G29  27808887.655 6 146136730.104 6       136.598 6        39.039               
G32  25091419.909 6 131856368.849 6      -565.216 6        41.610               
G31  25426699.783 7 133618215.167 7       164.399 7        42.530               
G26  24332090.342 7 127865952.946 7       943.256 7        43.158               
G28  25817445.692 6 135671593.543 6      -635.993 6        40.678               
G16  26112611.843 6 137222765.679 6      3083.960 6        38.466               
> 2024 12 27 02 47 49.0000000  0  6                                             
G29  27808859.582 6 146136595.650 6       134.452 6        38.928               
G32  25091529.893 6 131856932.749 6      -567.130 6        41.727               
G31  25426669.852 7 133618050.401 7       161.175 7        42.327               
G26  24331909.489 7 127865011.821 7       938.869 7        43.027               
G28  25817568.542 6 135672223.894 6      -633.134 6        41.005               
G16  26112026.489 6 137219681.188 6      3089.327 6        39.073               
> 2024 12 27 02 47 50.0000000  0  6                                             
G29  27808834.298 6 146136461.707 6       130.327 6        38.466               
G32  25091637.751 7 131857497.130 7      -560.283 7        42.436               
G31  25426635.079 7 133617885.799 7       169.714 7        42.489               
G26  24331727.154 7 127864071.287 7       941.297 7        42.560               
G28  25817691.177 6 135672854.298 6      -630.829 6        41.070               
G16  26111440.224 6 137216597.092 6      3084.275 6        39.113               
> 2024 12 27 02 47 51.0000000  0  6                                             
G29  27808801.990 6 146136328.270 6       131.121 6        39.095               
G32  25091748.717 6 131858061.965 6      -566.488 6        41.869               
G31  25426602.700 6 133617721.326 6       161.339 6        41.565               
G26  24331550.787 7 127863131.327 7       932.867 7        42.506               
G28  25817809.488 6 135673484.740 6      -630.347 6        41.399               
G16  26110852.637 6 137213513.377 6      3079.780 6        39.442               
> 2024 12 27 02 47 52.0000000  0  6                                             
G29  27808782.174 6 146136195.309 6       133.131 6        38.687               
G32  25091856.253 7 131858627.234 7      -562.278 7        42.150               
G31  25426571.376 6 133617556.930 6       164.033 6        41.797               
G26  24331374.241 7 127862191.919 7       939.401 7        42.044               
G28  25817933.856 6 135674115.169 6      -630.165 6        41.603               
G16  26110265.908 6 137210430.028 6      3082.113 6        39.314               
> 2024 12 27 02 47 53.0000000  0  6                                             
G29  27808754.602 6 146136062.832 6       126.601 6        39.131               
G32  25091968.042 7 131859192.980 7      -565.941 7        42.389               
G31  25426543.482 7 133617392.659 7       164.730 7        42.543               
G26  24331192.495 7 127861253.091 7       937.660 7        42.225               
G28  25818051.381 6 135674745.640 6      -635.034 6        41.582               
G16  26109679.661 6 137207347.099 6      3072.787 6        38.825               
> 2024 12 27 02 47 54.0000000  0  6                                             
G29  27808728.388 6 146135930.889 6       137.946 6        39.707               
G32  25092074.023 7 131859759.172 7      -560.756 7        42.414               
G31  25426517.233 7 133617228.529 7       159.380 7        42.637               
G26  24331016.842 6 127860314.818 6       937.803 6        41.134               
G28  25818172.283 7 135675376.145 7      -630.791 7        42.544               
G16  26109093.861 6 137204264.537 6      3079.214 6        38.724               
> 2024 12 27 02 47 55.0000000  0  6                                             
G29  27808711.841 6 146135799.409 6       138.461 6        39.820               
G32  25092180.093 7 131860325.828 7      -565.568 7        42.787               
G31  25426482.906 7 133617064.499 7       161.901 7        42.841               
G26  24330835.097 6 127859377.136 6       935.838 6        41.254               
G28  25818288.664 7 135676006.663 7      -626.898 7        42.370               
G16  26108512.957 6 137201182.338 6      3087.027 6        38.281               
> 2024 12 27 02 47 56.0000000  0  6                                             
G29  27808688.308 6 146135668.432 6       131.060 6        39.354               
G32  25092297.386 7 131860892.945 7      -569.976 7        42.924               
G31  25426453.315 7 133616900.605 7       169.093 7        42.643               
G26  24330655.352 6 127858440.005 6       939.274 6        41.463               
G28  25818410.280 7 135676637.217 7      -631.591 7        42.706               
G16  26107913.362 6 137198100.564 6      3089.336 6        38.056               
> 2024 12 27 02 47 57.0000000  0  6                                             
G29  27808663.827 6 146135537.976 6       127.200 6        39.649               
G32  25092395.558 7 131861460.529 7      -567.821 7        42.526               
G31  25426424.850 7 133616736.866 7       162.221 7        43.052               
G26  24330478.663 6 127857503.477 6       937.198 6        41.469               
G28  25818531.968 7 135677267.825 7      -629.537 7        42.684               
G16  26107323.738 6 137195019.175 6      3083.666 6        38.131               
> 2024 12 27 02 47 58.0000000  0  6                                             
G29  27808641.616 6 146135408.090 6       127.291 6        39.691               
G32  25092506.221 7 131862028.644 7      -568.687 7        43.052               
G31  25426389.165 7 133616573.300 7       161.981 7        42.957               
G26  24330304.440 6 127856567.603 6       936.297 6        41.733               
G28  25818646.938 7 135677898.533 7      -630.264 7        42.751               
G16  26106746.211 6 137191938.223 6      3084.878 6        37.513               
> 2024 12 27 02 47 59.0000000  0  6                                             
G29  27808611.096 6 146135278.740 6       123.436 6        39.419               
G32  25092612.595 7 131862597.262 7      -571.891 7        42.579               
G31  25426363.702 7 133616409.904 7       161.487 7        42.965               
G26  24330123.767 6 127855632.313 6       932.799 6        41.032               
G28  25818772.074 7 135678529.285 7      -629.685 7        42.732               
G16  26106162.287 6 137188857.781 6      3077.360 6        36.776               
> 2024 12 27 02 48 00.0000000  0  6                                             
G29  27808591.833 6 146135149.906 6       130.507 6        39.147               
G32  25092721.972 7 131863166.334 7      -568.406 7        42.040               
G31  25426330.198 7 133616246.607 7       168.997 7        43.421               
G26  24329943.843 6 127854697.620 6       937.332 6        41.482               
G28  25818892.226 7 135679160.104 7      -630.768 7        42.961               
G16  26105564.711 6 137185777.654 6      3085.104 6        36.522               
> 2024 12 27 02 48 01.0000000  0  6                                             
G29  27808562.671 6 146135021.561 6       124.111 6        39.649               
G32  25092826.684 7 131863735.854 7      -565.513 7        42.248               
G31  25426299.606 7 133616083.482 7       162.136 7        42.866               
G26  24329763.509 7 127853763.507 7       932.963 7        42.141               
G28  25819014.343 7 135679790.932 7      -628.194 7        42.872               
G16  26104974.890 6 137182697.942 6      3071.754 6        36.650               
> 2024 12 27 02 48 02.0000000  0  6                                             
G29  27808531.364 6 146134893.740 6       130.081 6        38.567               
G32  25092933.934 7 131864305.877 7      -567.994 7        42.278               
G31  25426269.890 7 133615920.435 7       160.305 7        42.765               
G26  24329584.158 6 127852829.956 6       930.696 6        40.934               
G28  25819131.903 7 135680421.820 7      -635.659 7        42.618               
G16  26104388.965 6 137179618.678 6      3070.485 6        36.282               
> 2024 12 27 02 48 03.0000000  0  6                                             
G29  27808504.382 6 146134766.414 6       132.003 6        38.176               
G32  25093039.218 7 131864876.359 7      -568.752 7        42.524               
G31  25426236.332 7 133615757.540 7       159.066 7        42.621               
G26  24329401.912 6 127851897.031 6       934.369 6        41.807               
G28  25819251.625 7 135681052.752 7      -634.583 7        42.715               
G16  26103799.055 6 137176539.729 6      3086.305 6        36.263               
> 2024 12 27 02 48 04.0000000  0  6                                             
G29  27808482.903 6 146134639.629 6       129.825 6        37.756               
G32  25093151.597 7 131865447.328 7      -573.636 7        42.728               
G31  25426202.345 7 133615594.811 7       164.545 7        42.838               
G26  24329222.757 6 127850964.685 6       926.891 6        41.107               
G28  25819367.774 7 135681683.713 7      -626.718 7        42.772               
G16  26103212.379 6 137173461.271 6      3077.050 6        36.130               
> 2024 12 27 02 48 05.0000000  0  6                                             
G29  27808453.991 6 146134513.308 6       138.313 6        38.271               
G32  25093261.473 7 131866018.732 7      -569.711 7        42.866               
G31  25426174.004 7 133615432.168 7       163.848 7        42.614               
G26  24329048.194 6 127850032.881 6       931.789 6        41.232               
G28  25819489.516 7 135682314.709 7      -631.507 7        42.389               
G16  26102629.116 5 137170383.144 5      3080.207 5        35.909               
> 2024 12 27 02 48 06.0000000  0  6                                             
G29  27808433.013 6 146134387.515 6       119.299 6        37.692               
G32  25093368.115 7 131866590.627 7      -574.246 7        42.142               
G31  25426141.876 7 133615269.655 7       155.393 7        42.347               
G26  24328869.808 6 127849101.665 6       935.733 6        40.884               
G28  25819606.790 7 135682945.728 7      -631.813 7        42.353               
G16  26102047.926 5 137167305.446 5      3082.531 5        35.244               
> 2024 12 27 02 48 07.0000000  0  6                                             
G29  27808414.429 6 146134262.274 6       125.731 6        38.189               
G32  25093477.170 7 131867163.020 7      -567.281 7        42.674               
G31  25426111.409 7 133615107.291 7       158.198 7        42.190               
G26  24328694.316 6 127848171.055 6       930.190 6        41.356               
G28  25819727.728 7 135683576.817 7      -635.177 7        42.119               
G16  26101458.427 5 137164228.128 5      3077.299 5        35.529               
> 2024 12 27 02 48 08.0000000  0  6                                             
G29  27808406.585 6 146134137.514 6       138.671 6        38.129               
G32  25093585.814 7 131867735.887 7      -570.259 7        42.732               
G31  25426080.067 7 133614945.089 7       162.743 7        42.578               
G26  24328515.465 6 127847241.049 6       920.388 6        40.772               
G28  25819848.897 6 135684207.974 6      -629.608 6        41.992               
G16  26100878.881 6 137161151.261 6      3077.427 6        36.204               
> 2024 12 27 02 48 09.0000000  0  6                                             
G29  27808370.793 6 146134013.268 6       119.350 6        38.811               
G32  25093693.564 7 131868309.199 7      -573.446 7        42.589               
G31  25426049.797 7 133614782.967 7       161.829 7        42.764               
G26  24328338.866 6 127846311.595 6       932.424 6        40.562               
G28  25819971.961 7 135684839.150 7      -629.422 7        42.522               
G16  26100298.031 5 137158074.798 5      3079.341 5        35.822               
> 2024 12 27 02 48 10.0000000  0  6                                             
G29  27808356.480 6 146133889.516 6       121.767 6        39.400               
G32  25093797.919 7 131868882.994 7      -570.799 7        42.584               
G31  25426015.327 7 133614621.011 7       163.787 7        42.502               
G26  24328157.155 6 127845382.741 6       933.398 6        39.715               
G28  25820085.966 7 135685470.354 7      -627.690 7        42.069               
G16  26099713.785 5 137154998.705 5      3079.427 5        35.890               
> 2024 12 27 02 48 11.0000000  0  6                                             
G29  27808334.644 6 146133766.257 6       122.286 6        39.724               
G32  25093909.565 7 131869457.244 7      -576.460 7        42.429               
G31  25425987.309 6 133614459.146 6       166.233 6        41.936               
G26  24327988.025 6 127844454.446 6       926.817 6        39.924               
G28  25820205.742 6 135686101.571 6      -633.731 6        41.739               
G16  26099134.150 6 137151922.968 6      3071.390 6        36.259               
> 2024 12 27 02 48 12.0000000  0  6                                             
G29  27808306.536 6 146133643.482 6       120.310 6        40.190               
G32  25094020.674 7 131870031.918 7      -569.446 7        42.398               
G31  25425953.679 7 133614297.409 7       165.474 7        42.033               
G26  24327807.191 6 127843526.721 6       929.257 6        40.008               
G28  25820326.876 6 135686732.816 6      -629.045 6        41.553               
G16  26098554.908 6 137148847.624 6      3077.972 6        36.229               
> 2024 12 27 02 48 13.0000000  0  6                                             
G29  27808288.006 6 146133521.191 6       124.013 6        39.764               
G32  25094131.409 7 131870607.068 7      -577.282 7        42.098               
G31  25425920.925 6 133614135.780 6       157.943 6        41.823               
G26  24327629.680 6 127842599.524 6       930.219 6        40.458               
G28  25820439.612 6 135687364.089 6      -630.846 6        41.114               
G16  26097971.698 6 137145772.690 6      3069.203 6        36.972               
> 2024 12 27 02 48 14.0000000  0  6                                             
G29  27808264.991 6 146133399.435 6       118.194 6        40.164               
G32  25094241.732 7 131871182.707 7      -573.740 7        42.259               
G31  25425896.409 6 133613974.297 6       163.472 6        41.767               
G26  24327460.299 6 127841672.969 6       922.420 6        40.266               
G28  25820564.820 6 135687995.420 6      -630.350 6        40.445               
G16  26097380.198 6 137142698.134 6      3072.550 6        37.050               
> 2024 12 27 02 48 15.0000000  0  6                                             
G29  27808232.558 6 146133278.183 6       119.394 6        39.109               
G32  25094351.412 7 131871758.827 7      -574.657 7        42.534               
G31  25425857.187 6 133613812.943 6       157.216 6        41.657               
G26  24327286.219 6 127840746.987 6       925.635 6        40.394               
G28  25820684.238 6 135688626.779 6      -634.786 6        40.652               
G16  26096803.172 6 137139623.994 6      3073.928 6        37.573               
> 2024 12 27 02 48 16.0000000  0  6                                             
G29  27808215.744 6 146133157.447 6       117.567 6        38.778               
G32  25094460.467 7 131872335.378 7      -576.121 7        42.691               
G31  25425830.490 6 133613651.715 6       160.320 6        41.549               
G26  24327110.084 6 127839821.575 6       922.275 6        40.920               
G28  25820800.762 6 135689258.171 6      -625.753 6        40.847               
G16  26096219.534 6 137136550.233 6      3072.301 6        37.267               
> 2024 12 27 02 48 17.0000000  0  6                                             
G29  27808183.526 6 146133037.231 6       132.341 6        38.872               
G32  25094570.183 7 131872912.427 7      -584.328 7        42.548               
G31  25425795.574 6 133613490.624 6       156.815 6        40.911               
G26  24326933.610 6 127838896.734 6       921.441 6        40.497               
G28  25820920.753 6 135689889.626 6      -633.289 6        40.513               
G16  26095626.961 6 137133476.871 6      3075.807 6        38.062               
> 2024 12 27 02 48 18.0000000  0  6                                             
G29  27808148.485 6 146132917.541 6       114.558 6        38.220               
G32  25094681.328 7 131873489.973 7      -581.720 7        42.331               
G31  25425762.481 6 133613329.676 6       166.503 6        40.352               
G26  24326750.488 6 127837972.526 6       916.011 6        40.640               
G28  25821039.761 6 135690521.112 6      -630.596 6        39.985               
G16  26095053.240 6 137130403.954 6      3073.920 6        38.333               
> 2024 12 27 02 48 19.0000000  0  6                                             
G29  27808124.058 6 146132798.342 6       130.513 6        37.335               
G32  25094790.222 7 131874067.956 7      -582.729 7        42.360               
G31  25425733.176 6 133613168.841 6       166.484 6        39.608               
G26  24326575.675 6 127837048.875 6       927.230 6        40.661               
G28  25821159.286 6 135691152.660 6      -630.148 6        39.932               
G16  26094470.478 6 137127331.414 6      3069.543 6        38.085               
