     3.02           OBSERVATION DATA    G                   RINEX VERSION / TYPE
G = GPS  R = GLONASS  E = GALILEO  S = GEO  M = MIXED       COMMENT             
GNSS-SDR            tagsys-g1           20241227 030736 UTC PGM / RUN BY / DATE 
GPS OBSERVATION DATA FILE GENERATED BY GNSS-SDR             COMMENT             
GNSS-SDR VERSION 0.0.19.git-next-dc55847ae                  COMMENT             
See https://gnss-sdr.org                                    COMMENT             
DEFAULT MARKER NAME                                         MARKER NAME         
tagsys-g1           CTTC                                    OBSERVER / AGENCY   
GNSS-SDR            Software Receiver   0.0.19.gi           REC # / TYPE / VERS 
Antenna number      Antenna type                            ANT # / TYPE        
        0.0000        0.0000        0.0000                  APPROX POSITION XYZ 
        0.0000        0.0000        0.0000                  ANTENNA: DELTA H/E/N
G    4 C1C L1C D1C S1C                                      SYS / # / OBS TYPES 
DBHZ                                                        SIGNAL STRENGTH UNIT
  2024    12    27    02    42   42.1800000     GPS         TIME OF FIRST OBS   
                                                            END OF HEADER       
> 2024 12 27 02 42 43.0000000  0  4                                             
G32  25062814.230 7 131705957.284 7      -422.498 7        45.366               
G26  24391873.159 7 128180151.899 7      1114.163 7        43.294               
G31  25437445.248 6 133674664.112 6       209.256 6        41.555               
G29  27821156.472 6 146201165.918 6       284.836 6        40.595               
> 2024 12 27 02 42 44.0000000  0  4                                             
G32  25062890.585 7 131706380.138 7      -423.527 7        45.287               
G26  24391657.927 7 128179033.458 7      1114.062 7        42.706               
G31  25437401.522 7 133674458.280 7       203.202 7        42.200               
G29  27821100.614 6 146200878.927 6       288.454 6        40.427               
> 2024 12 27 02 42 45.0000000  0  4                                             
G32  25062971.049 7 131706803.480 7      -421.041 7        45.294               
G26  24391444.964 7 128177915.653 7      1117.763 7        42.593               
G31  25437367.357 7 133674252.616 7       205.702 7        42.208               
G29  27821047.525 6 146200592.452 6       282.553 6        39.749               
> 2024 12 27 02 42 46.0000000  0  4                                             
G32  25063051.531 7 131707227.281 7      -422.419 7        44.944               
G26  24391228.034 7 128176798.385 7      1118.010 7        42.299               
G31  25437326.026 6 133674047.079 6       203.926 6        41.833               
G29  27820984.965 6 146200306.435 6       287.144 6        39.505               
> 2024 12 27 02 42 47.0000000  0  4                                             
G32  25063134.318 7 131707651.504 7      -420.793 7        45.192               
G26  24391014.142 7 128175681.732 7      1115.439 7        42.406               
G31  25437285.016 6 133673841.679 6       204.618 6        41.900               
G29  27820932.323 6 146200020.937 6       289.060 6        39.452               
> 2024 12 27 02 42 48.0000000  0  5                                             
G32  25063214.854 7 131708076.211 7      -425.877 7        44.575               
G26  24390804.342 6 128174565.621 6      1115.199 6        41.894               
G31  25437248.171 6 133673636.416 6       207.817 6        41.705               
G28  25781793.311 7 135484239.252 7      -619.033 7        42.985               
G29  27820876.590 6 146199735.921 6       286.152 6        39.680               
> 2024 12 27 02 42 49.0000000  0  5                                             
G32  25063290.726 7 131708501.372 7      -428.060 7        43.988               
G26  24390591.075 7 128173450.122 7      1116.550 7        42.203               
G31  25437214.380 6 133673431.292 6       206.044 6        41.243               
G28  25781913.623 7 135484857.562 7      -619.286 7        43.317               
G29  27820821.285 6 146199451.400 6       279.013 6        39.658               
> 2024 12 27 02 42 50.0000000  0  5                                             
G32  25063375.336 7 131708926.992 7      -425.877 7        43.979               
G26  24390384.044 6 128172335.195 6      1118.216 6        41.596               
G31  25437171.405 6 133673226.305 6       207.066 6        41.522               
G28  25782031.201 7 135485475.936 7      -616.618 7        43.351               
G29  27820766.284 6 146199167.356 6       282.043 6        39.780               
> 2024 12 27 02 42 51.0000000  0  5                                             
G32  25063454.299 7 131709353.039 7      -427.014 7        43.749               
G26  24390169.169 6 128171220.818 6      1114.674 6        41.941               
G31  25437130.146 6 133673021.421 6       209.019 6        41.408               
G28  25782149.994 7 135486094.319 7      -617.584 7        43.388               
G29  27820708.246 6 146198883.800 6       278.125 6        39.982               
> 2024 12 27 02 42 52.0000000  0  5                                             
G32  25063535.246 7 131709779.528 7      -424.947 7        44.127               
G26  24389958.083 6 128170107.026 6      1113.403 6        41.807               
G31  25437095.283 6 133672816.700 6       203.431 6        41.377               
G28  25782268.251 7 135486712.742 7      -623.108 7        43.747               
G29  27820659.767 6 146198600.734 6       282.900 6        40.168               
> 2024 12 27 02 42 53.0000000  0  5                                             
G32  25063616.282 7 131710206.467 7      -430.382 7        43.896               
G26  24389748.032 6 128168993.791 6      1113.600 6        41.226               
G31  25437057.365 6 133672612.067 6       206.217 6        41.075               
G28  25782387.063 7 135487331.177 7      -615.030 7        43.602               
G29  27820610.931 6 146198318.132 6       284.326 6        39.991               
> 2024 12 27 02 42 54.0000000  0  5                                             
G32  25063701.570 7 131710633.867 7      -423.932 7        44.116               
G26  24389531.227 6 128167881.137 6      1112.749 6        41.883               
G31  25437014.068 6 133672407.594 6       203.465 6        41.519               
G28  25782500.477 7 135487949.672 7      -622.072 7        43.621               
G29  27820552.964 6 146198036.032 6       283.047 6        40.081               
> 2024 12 27 02 42 55.0000000  0  5                                             
G32  25063782.535 7 131711061.705 7      -427.006 7        44.178               
G26  24389316.317 6 128166769.069 6      1113.906 6        41.665               
G31  25436980.385 6 133672203.259 6       202.889 6        41.762               
G28  25782620.057 7 135488568.190 7      -614.951 7        44.126               
G29  27820506.987 6 146197754.426 6       280.394 6        40.335               
> 2024 12 27 02 42 56.0000000  0  5                                             
G32  25063865.179 7 131711490.038 7      -430.691 7        44.211               
G26  24389106.409 6 128165657.589 6      1112.640 6        41.587               
G31  25436943.682 7 133671999.063 7       206.641 7        42.231               
G28  25782736.759 7 135489186.788 7      -617.545 7        44.067               
G29  27820454.505 6 146197473.301 6       277.268 6        40.876               
> 2024 12 27 02 42 57.0000000  0  5                                             
G32  25063947.091 7 131711918.792 7      -426.270 7        43.732               
G26  24388893.303 6 128164546.698 6      1106.174 6        41.775               
G31  25436905.711 7 133671795.004 7       200.765 7        42.016               
G28  25782852.533 7 135489805.396 7      -621.592 7        43.897               
G29  27820402.042 6 146197192.682 6       282.549 6        40.956               
> 2024 12 27 02 42 58.0000000  0  5                                             
G32  25064030.789 7 131712348.037 7      -433.534 7        44.580               
G26  24388682.306 6 128163436.378 6      1104.916 6        41.814               
G31  25436865.237 6 133671591.075 6       206.945 6        41.761               
G28  25782971.558 7 135490424.060 7      -619.648 7        43.621               
G29  27820349.203 6 146196912.539 6       280.775 6        40.834               
> 2024 12 27 02 42 59.0000000  0  5                                             
G32  25064114.023 7 131712777.723 7      -428.448 7        44.246               
G26  24388468.342 6 128162326.638 6      1109.430 6        40.939               
G31  25436831.411 7 133671387.308 7       207.037 7        42.312               
G28  25783089.136 7 135491042.767 7      -617.709 7        43.928               
G29  27820290.039 6 146196632.929 6       279.961 6        40.739               
> 2024 12 27 02 43 00.0000000  0  5                                             
G32  25064194.202 7 131713207.859 7      -426.097 7        43.936               
G26  24388262.348 6 128161217.485 6      1109.888 6        41.352               
G31  25436783.790 7 133671183.667 7       200.522 7        42.322               
G28  25783204.445 7 135491661.523 7      -616.338 7        43.734               
G29  27820243.490 6 146196353.766 6       278.461 6        40.601               
> 2024 12 27 02 43 01.0000000  0  5                                             
G32  25064278.418 7 131713638.462 7      -433.310 7        44.035               
G26  24388046.633 6 128160108.908 6      1092.118 6        40.755               
G31  25436746.355 7 133670980.161 7       201.318 7        42.038               
G28  25783323.292 7 135492280.288 7      -617.022 7        43.531               
G29  27820184.004 6 146196075.125 6       282.805 6        41.073               
> 2024 12 27 02 43 02.0000000  0  5                                             
G32  25064358.650 7 131714069.523 7      -430.228 7        44.536               
G26  24387838.084 6 128159000.900 6      1108.041 6        40.917               
G31  25436706.346 6 133670776.791 6       196.919 6        41.286               
G28  25783441.674 7 135492899.132 7      -619.166 7        43.071               
G29  27820124.429 6 146195796.979 6       282.036 6        40.857               
> 2024 12 27 02 43 03.0000000  0  5                                             
G32  25064441.205 7 131714501.040 7      -433.720 7        44.511               
G26  24387627.355 6 128157893.465 6      1105.549 6        40.376               
G31  25436666.141 6 133670573.564 6       204.306 6        41.396               
G28  25783558.234 7 135493518.003 7      -621.423 7        43.208               
G29  27820078.648 6 146195519.308 6       275.873 6        40.713               
> 2024 12 27 02 43 04.0000000  0  5                                             
G32  25064520.168 7 131714932.987 7      -430.433 7        44.604               
G26  24387419.574 6 128156786.628 6      1105.999 6        40.047               
G31  25436626.704 6 133670370.469 6       201.520 6        41.862               
G28  25783678.975 7 135494136.901 7      -618.736 7        43.412               
G29  27820021.485 6 146195242.117 6       278.283 6        41.322               
> 2024 12 27 02 43 05.0000000  0  5                                             
G32  25064606.851 7 131715365.391 7      -433.921 7        45.089               
G26  24387205.896 6 128155680.327 6      1103.909 6        40.640               
G31  25436592.985 7 133670167.464 7       204.920 7        42.136               
G28  25783796.267 7 135494755.818 7      -617.149 7        43.267               
G29  27819972.703 6 146194965.420 6       268.739 6        41.048               
> 2024 12 27 02 43 06.0000000  0  5                                             
G32  25064688.280 7 131715798.232 7      -431.088 7        44.597               
G26  24386998.526 6 128154574.633 6      1097.375 6        41.091               
G31  25436550.153 7 133669964.619 7       199.790 7        42.167               
G28  25783916.454 7 135495374.769 7      -621.866 7        43.377               
G29  27819917.791 6 146194689.215 6       275.551 6        40.989               
> 2024 12 27 02 43 07.0000000  0  5                                             
G32  25064770.781 7 131716231.529 7      -434.053 7        43.704               
G26  24386789.405 6 128153469.516 6      1098.756 6        40.592               
G31  25436510.484 7 133669761.920 7       198.607 7        42.213               
G28  25784028.368 7 135495993.790 7      -618.348 7        43.404               
G29  27819862.433 6 146194413.480 6       277.387 6        41.093               
> 2024 12 27 02 43 08.0000000  0  5                                             
G32  25064853.551 7 131716665.308 7      -434.457 7        43.541               
G26  24386576.924 6 128152364.968 6      1106.245 6        40.865               
G31  25436471.779 7 133669559.356 7       203.526 7        42.311               
G28  25784147.465 7 135496612.847 7      -621.231 7        42.899               
G29  27819813.168 6 146194138.271 6       275.524 6        41.024               
> 2024 12 27 02 43 09.0000000  0  5                                             
G32  25064937.338 7 131717099.530 7      -433.971 7        44.203               
G26  24386367.481 6 128151261.036 6      1101.703 6        41.062               
G31  25436433.057 7 133669356.938 7       202.495 7        42.248               
G28  25784265.115 7 135497231.944 7      -615.785 7        42.729               
G29  27819757.935 6 146193863.551 6       277.724 6        40.360               
> 2024 12 27 02 43 10.0000000  0  5                                             
G32  25065022.592 7 131717534.226 7      -435.053 7        44.587               
G26  24386157.985 6 128150157.639 6      1111.415 6        41.079               
G31  25436395.461 7 133669154.675 7       204.789 7        42.077               
G28  25784379.887 7 135497851.099 7      -618.840 7        42.586               
G29  27819709.546 6 146193589.320 6       277.855 6        40.698               
> 2024 12 27 02 43 11.0000000  0  5                                             
G32  25065107.630 7 131717969.374 7      -435.431 7        45.165               
G26  24385950.114 6 128149054.854 6      1099.486 6        41.271               
G31  25436356.614 7 133668952.546 7       202.502 7        42.159               
G28  25784497.358 7 135498470.278 7      -616.108 7        42.940               
G29  27819652.508 6 146193315.584 6       271.158 6        40.925               
> 2024 12 27 02 43 12.0000000  0  5                                             
G32  25065189.846 7 131718404.975 7      -436.337 7        44.564               
G26  24385738.760 6 128147952.641 6      1104.648 6        40.916               
G31  25436319.589 6 133668750.526 6       205.646 6        41.786               
G28  25784617.242 7 135499089.500 7      -621.985 7        42.376               
G29  27819596.917 6 146193042.359 6       270.380 6        40.930               
> 2024 12 27 02 43 13.0000000  0  5                                             
G32  25065269.327 7 131718841.021 7      -439.993 7        44.641               
G26  24385524.403 6 128146850.997 6      1106.600 6        40.498               
G31  25436283.386 7 133668548.675 7       203.190 7        42.070               
G28  25784732.282 7 135499708.764 7      -618.368 7        42.648               
G29  27819546.384 6 146192769.581 6       271.083 6        40.726               
> 2024 12 27 02 43 14.0000000  0  5                                             
G32  25065353.168 7 131719277.520 7      -435.858 7        44.247               
G26  24385319.409 6 128145749.934 6      1102.334 6        39.928               
G31  25436237.910 6 133668346.934 6       192.003 6        41.805               
G28  25784851.004 7 135500328.044 7      -618.366 7        42.258               
G29  27819498.709 6 146192497.305 6       272.489 6        41.008               
> 2024 12 27 02 43 15.0000000  0  5                                             
G32  25065439.315 7 131719714.460 7      -434.588 7        44.406               
G26  24385109.627 6 128144649.414 6      1105.249 6        40.535               
G31  25436199.134 7 133668145.298 7       204.841 7        42.060               
G28  25784969.261 7 135500947.370 7      -612.885 7        42.167               
G29  27819442.869 6 146192225.493 6       271.126 6        40.858               
> 2024 12 27 02 43 16.0000000  0  5                                             
G32  25065518.886 7 131720151.871 7      -441.893 7        44.266               
G26  24384903.401 6 128143549.497 6      1104.250 6        40.192               
G31  25436160.161 6 133667943.840 6       202.935 6        41.434               
G28  25785084.266 7 135501566.729 7      -619.140 7        42.170               
G29  27819386.581 6 146191954.215 6       277.010 6        40.833               
> 2024 12 27 02 43 17.0000000  0  5                                             
G32  25065597.581 7 131720589.713 7      -439.481 7        43.987               
G26  24384689.866 6 128142450.138 6      1106.926 6        40.561               
G31  25436122.226 6 133667742.495 6       194.646 6        41.677               
G28  25785204.722 6 135502186.129 6      -620.504 6        41.756               
G29  27819341.140 6 146191683.397 6       266.317 6        41.254               
> 2024 12 27 02 43 18.0000000  0  5                                             
G32  25065683.317 7 131721028.135 7      -436.291 7        43.830               
G26  24384477.278 6 128141351.474 6      1099.892 6        39.399               
G31  25436080.448 6 133667541.399 6       201.573 6        41.831               
G28  25785325.284 6 135502805.680 6      -622.209 6        41.885               
G29  27819285.425 6 146191413.189 6       271.588 6        41.453               
> 2024 12 27 02 43 19.0000000  0  5                                             
G32  25065761.904 7 131721467.128 7      -438.250 7        43.688               
G26  24384270.855 6 128140253.527 6      1100.957 6        38.950               
G31  25436039.724 6 133667340.556 6       200.517 6        41.384               
G28  25785439.092 6 135503425.377 6      -616.978 6        41.412               
G29  27819239.305 6 146191143.585 6       263.952 6        41.135               
> 2024 12 27 02 43 20.0000000  0  5                                             
G32  25065844.995 7 131721906.588 7      -437.171 7        43.732               
G26  24384058.089 6 128139156.136 6      1104.123 6        38.805               
G31  25436004.737 7 133667139.867 7       204.312 7        42.045               
G28  25785557.974 6 135504045.148 6      -621.629 6        41.245               
G29  27819190.754 6 146190874.501 6       265.244 6        40.797               
> 2024 12 27 02 43 21.0000000  0  5                                             
G32  25065929.444 7 131722346.499 7      -440.526 7        43.153               
G26  24383847.341 6 128138059.369 6      1099.252 6        38.768               
G31  25435967.337 6 133666939.314 6       199.308 6        41.408               
G28  25785676.678 6 135504664.951 6      -620.911 6        41.178               
G29  27819138.773 6 146190605.899 6       268.047 6        41.564               
> 2024 12 27 02 43 22.0000000  0  5                                             
G32  25066016.502 7 131722786.864 7      -440.086 7        42.815               
G26  24383645.153 6 128136963.137 6      1102.076 6        38.492               
G31  25435921.396 6 133666738.875 6       200.565 6        41.583               
G28  25785791.647 6 135505284.773 6      -613.474 6        41.246               
G29  27819089.294 7 146190337.766 7       267.082 7        42.483               
> 2024 12 27 02 43 23.0000000  0  5                                             
G32  25066103.185 7 131723227.681 7      -441.927 7        42.590               
G26  24383428.563 6 128135867.509 6      1095.206 6        39.267               
G31  25435885.658 6 133666538.584 6       205.304 6        41.784               
G28  25785913.782 6 135505904.649 6      -618.203 6        41.393               
G29  27819044.568 7 146190070.126 7       266.009 7        42.218               
> 2024 12 27 02 43 24.0000000  0  5                                             
G32  25066183.667 7 131723668.938 7      -436.690 7        42.950               
G26  24383231.646 6 128134772.432 6      1102.404 6        39.519               
G31  25435851.742 6 133666338.424 6       204.847 6        41.756               
G28  25786023.659 6 135506524.557 6      -623.937 6        41.694               
G29  27818988.173 7 146189802.979 7       270.589 7        42.179               
> 2024 12 27 02 43 25.0000000  0  5                                             
G32  25066263.559 7 131724110.659 7      -445.400 7        43.434               
G26  24383015.127 6 128133677.911 6      1091.612 6        39.794               
G31  25435812.448 7 133666138.381 7       205.599 7        42.060               
G28  25786142.667 6 135507144.473 6      -620.403 6        41.273               
G29  27818940.302 7 146189536.319 7       265.975 7        42.012               
> 2024 12 27 02 43 26.0000000  0  5                                             
G32  25066350.689 7 131724552.850 7      -441.508 7        43.344               
G26  24382810.384 6 128132583.991 6      1098.959 6        39.620               
G31  25435776.156 6 133665938.509 6       201.812 6        41.752               
G28  25786265.784 6 135507764.455 6      -621.749 6        41.341               
G29  27818891.002 6 146189270.154 6       262.239 6        41.847               
> 2024 12 27 02 43 27.0000000  0  5                                             
G32  25066434.780 7 131724995.476 7      -446.497 7        43.352               
G26  24382591.721 6 128131490.657 6      1095.497 6        39.498               
G31  25435737.595 6 133665738.754 6       195.234 6        41.695               
G28  25786386.686 6 135508384.472 6      -618.137 6        41.885               
G29  27818833.839 7 146189004.491 7       266.586 7        42.084               
> 2024 12 27 02 43 28.0000000  0  5                                             
G32  25066517.014 7 131725438.561 7      -442.127 7        43.165               
G26  24382396.627 6 128130397.875 6      1091.863 6        39.274               
G31  25435694.209 6 133665539.125 6       200.252 6        41.551               
G28  25786501.620 7 135509004.516 7      -619.439 7        42.100               
G29  27818783.716 6 146188739.294 6       265.278 6        41.513               
> 2024 12 27 02 43 29.0000000  0  5                                             
G32  25066599.283 7 131725882.095 7      -441.463 7        43.531               
G26  24382184.218 6 128129305.703 6      1094.137 6        39.027               
G31  25435659.793 6 133665339.674 6       198.178 6        40.667               
G28  25786619.573 7 135509624.612 7      -620.783 7        42.960               
G29  27818733.576 6 146188474.597 6       259.198 6        41.675               
> 2024 12 27 02 43 30.0000000  0  5                                             
G32  25066683.839 7 131726326.131 7      -448.679 7        42.039               
G26  24381972.684 6 128128214.139 6      1087.292 6        38.738               
G31  25435621.035 7 133665140.325 7       197.005 7        42.051               
G28  25786740.582 7 135510244.770 7      -621.186 7        42.075               
G29  27818679.647 6 146188210.422 6       268.184 6        40.874               
> 2024 12 27 02 43 31.0000000  0  5                                             
G32  25066763.392 7 131726770.564 7      -443.573 7        42.649               
G26  24381767.083 6 128127123.075 6      1090.317 6        38.930               
G31  25435581.384 6 133664941.093 6       201.776 6        40.423               
G28  25786855.426 7 135510864.939 7      -620.995 7        42.115               
G29  27818629.774 6 146187946.732 6       262.953 6        41.401               
> 2024 12 27 02 43 32.0000000  0  5                                             
G32  25066851.093 7 131727215.489 7      -445.789 7        42.437               
G26  24381558.927 6 128126032.648 6      1097.989 6        38.736               
G31  25435543.716 6 133664742.028 6       197.728 6        40.690               
G28  25786976.328 7 135511485.141 7      -615.919 7        42.046               
G29  27818580.313 6 146187683.534 6       261.111 6        41.269               
> 2024 12 27 02 43 33.0000000  0  5                                             
G32  25066935.792 7 131727660.830 7      -442.973 7        42.565               
G26  24381350.646 6 128124942.780 6      1095.430 6        38.619               
G31  25435505.190 6 133664543.083 6       193.705 6        41.118               
G28  25787090.761 6 135512105.408 6      -621.593 6        41.959               
G29  27818525.598 6 146187420.815 6       266.009 6        40.852               
> 2024 12 27 02 43 34.0000000  0  5                                             
G32  25067017.436 7 131728106.641 7      -446.713 7        42.100               
G26  24381132.268 6 128123853.471 6      1093.313 6        38.591               
G31  25435471.168 6 133664344.257 6       198.574 6        41.146               
G28  25787210.502 7 135512725.667 7      -621.920 7        42.595               
G29  27818478.459 6 146187158.592 6       266.514 6        41.136               
> 2024 12 27 02 43 35.0000000  0  5                                             
G32  25067112.124 7 131728552.881 7      -451.085 7        42.438               
G26  24380936.388 6 128122764.721 6      1093.535 6        38.171               
G31  25435432.767 6 133664145.550 6       196.987 6        40.950               
G28  25787333.673 7 135513345.973 7      -623.844 7        42.499               
G29  27818424.263 6 146186896.841 6       263.796 6        41.231               
> 2024 12 27 02 43 36.0000000  0  5                                             
G32  25067196.412 7 131728999.567 7      -445.151 7        43.010               
G26  24380722.889 6 128121676.588 6      1081.413 6        37.513               
G31  25435395.564 6 133663946.974 6       200.623 6        41.265               
G28  25787451.126 7 135513966.296 7      -618.312 7        42.456               
G29  27818373.461 6 146186635.574 6       256.464 6        41.010               
> 2024 12 27 02 43 37.0000000  0  5                                             
G32  25067285.400 7 131729446.713 7      -449.018 7        42.934               
G26  24380521.005 6 128120588.982 6      1083.753 6        38.311               
G31  25435364.007 6 133663748.512 6       202.768 6        41.509               
G28  25787569.043 7 135514586.658 7      -623.219 7        42.303               
G29  27818332.595 6 146186374.781 6       262.352 6        41.604               
> 2024 12 27 02 43 38.0000000  0  5                                             
G32  25067372.833 7 131729894.327 7      -448.370 7        43.397               
G26  24380314.028 6 128119501.931 6      1084.104 6        37.580               
G31  25435324.642 6 133663550.202 6       197.016 6        41.560               
G28  25787688.158 7 135515207.062 7      -620.089 7        42.430               
G29  27818280.471 6 146186114.474 6       261.673 6        41.424               
> 2024 12 27 02 43 39.0000000  0  5                                             
G32  25067461.266 7 131730342.413 7      -453.008 7        43.792               
G26  24380104.228 6 128118415.526 6      1081.840 6        37.902               
G31  25435291.030 6 133663352.053 6       197.935 6        41.450               
G28  25787802.395 7 135515827.534 7      -624.456 7        42.979               
G29  27818231.635 6 146185854.696 6       259.296 6        41.802               
> 2024 12 27 02 43 40.0000000  0  5                                             
G32  25067546.895 7 131730790.944 7      -449.461 7        43.690               
G26  24379902.147 6 128117329.687 6      1087.208 6        38.411               
G31  25435251.682 6 133663154.042 6       199.231 6        41.604               
G28  25787922.832 7 135516448.041 7      -624.242 7        42.931               
G29  27818186.355 7 146185595.423 7       255.558 7        42.301               
> 2024 12 27 02 43 41.0000000  0  5                                             
G32  25067630.558 7 131731239.937 7      -447.286 7        43.798               
G26  24379699.655 6 128116244.396 6      1094.601 6        38.763               
G31  25435214.979 7 133662956.163 7       199.466 7        42.037               
G28  25788040.678 7 135517068.557 7      -613.848 7        42.822               
G29  27818139.931 7 146185336.600 7       259.017 7        42.265               
> 2024 12 27 02 43 42.0000000  0  5                                             
G32  25067714.506 7 131731689.372 7      -448.349 7        44.272               
G26  24379497.628 6 128115159.701 6      1083.766 6        38.833               
G31  25435176.311 6 133662758.379 6       198.464 6        41.988               
G28  25788156.130 7 135517689.131 7      -624.022 7        42.292               
G29  27818083.268 7 146185078.279 7       261.257 7        42.475               
> 2024 12 27 02 43 43.0000000  0  5                                             
G32  25067797.865 7 131732139.259 7      -453.559 7        43.814               
G26  24379286.327 6 128114075.586 6      1094.351 6        38.463               
G31  25435139.519 7 133662560.758 7       194.815 7        42.040               
G28  25788276.121 7 135518309.730 7      -615.201 7        42.379               
G29  27818039.042 7 146184820.443 7       257.544 7        42.805               
> 2024 12 27 02 43 44.0000000  0  5                                             
G32  25067879.116 7 131732589.612 7      -447.621 7        44.110               
G26  24379085.658 6 128112992.075 6      1082.349 6        38.348               
G31  25435099.653 7 133662363.288 7       198.074 7        42.145               
G28  25788395.861 7 135518930.373 7      -618.438 7        42.496               
G29  27817990.742 7 146184563.123 7       252.019 7        42.484               
> 2024 12 27 02 43 45.0000000  0  5                                             
G32  25067964.851 7 131733040.436 7      -447.670 7        44.018               
G26  24378877.234 6 128111909.115 6      1085.683 6        39.030               
G31  25435060.377 7 133662165.933 7       195.225 7        42.322               
G28  25788507.525 7 135519551.075 7      -623.486 7        42.864               
G29  27817938.475 6 146184306.306 6       260.200 6        41.884               
> 2024 12 27 02 43 46.0000000  0  5                                             
G32  25068048.460 7 131733491.673 7      -450.975 7        43.585               
G26  24378670.936 6 128110826.719 6      1084.058 6        39.215               
G31  25435022.441 7 133661968.716 7       193.784 7        42.518               
G28  25788629.731 7 135520171.794 7      -621.752 7        43.160               
G29  27817891.534 7 146184049.954 7       257.294 7        42.235               
> 2024 12 27 02 43 47.0000000  0  5                                             
G32  25068136.805 7 131733943.373 7      -450.929 7        43.425               
G26  24378466.854 6 128109744.892 6      1083.855 6        39.892               
G31  25434987.096 7 133661771.582 7       196.178 7        42.263               
G28  25788743.967 7 135520792.535 7      -621.096 7        42.879               
G29  27817843.770 6 146183794.070 6       256.701 6        41.813               
> 2024 12 27 02 43 48.0000000  0  5                                             
G32  25068219.038 7 131734395.518 7      -456.191 7        42.354               
G26  24378260.377 6 128108663.670 6      1087.942 6        40.493               
G31  25434945.425 7 133661574.619 7       194.210 7        42.503               
G28  25788862.600 7 135521413.315 7      -622.834 7        42.914               
G29  27817790.198 6 146183538.718 6       253.387 6        41.803               
> 2024 12 27 02 43 49.0000000  0  5                                             
G32  25068311.510 7 131734848.075 7      -447.114 7        43.097               
G26  24378055.687 6 128107582.966 6      1079.839 6        40.047               
G31  25434911.528 7 133661377.740 7       197.965 7        42.112               
G28  25788976.783 7 135522034.100 7      -619.362 7        42.732               
G29  27817742.685 6 146183283.791 6       251.547 6        41.587               
> 2024 12 27 02 43 50.0000000  0  5                                             
G32  25068400.802 7 131735301.159 7      -452.665 7        43.584               
G26  24377859.146 6 128106502.879 6      1077.819 6        40.451               
G31  25434874.771 6 133661181.041 6       196.513 6        41.814               
G28  25789096.773 7 135522654.966 7      -621.106 7        42.646               
G29  27817697.208 7 146183029.402 7       255.943 7        42.067               
> 2024 12 27 02 43 51.0000000  0  5                                             
G32  25068485.733 7 131735754.675 7      -455.234 7        43.704               
G26  24377646.076 6 128105423.371 6      1080.348 6        40.004               
G31  25434836.192 6 133660984.473 6       197.218 6        41.524               
G28  25789215.299 7 135523275.845 7      -622.904 7        42.591               
G29  27817645.906 6 146182775.501 6       263.355 6        41.200               
> 2024 12 27 02 43 52.0000000  0  5                                             
G32  25068573.238 7 131736208.650 7      -452.930 7        44.175               
G26  24377438.849 6 128104344.433 6      1077.523 6        40.055               
G31  25434797.112 6 133660788.029 6       195.097 6        41.547               
G28  25789329.285 7 135523896.774 7      -621.875 7        42.435               
G29  27817601.573 7 146182522.089 7       253.740 7        42.095               
> 2024 12 27 02 43 53.0000000  0  5                                             
G32  25068661.600 7 131736663.044 7      -454.926 7        44.450               
G26  24377237.179 6 128103266.048 6      1081.636 6        39.910               
G31  25434757.943 6 133660591.699 6       199.231 6        41.595               
G28  25789446.345 6 135524517.707 6      -620.821 6        41.556               
G29  27817552.379 7 146182269.145 7       253.415 7        42.002               
> 2024 12 27 02 43 54.0000000  0  5                                             
G32  25068749.033 7 131737117.939 7      -455.617 7        44.197               
G26  24377029.434 6 128102188.239 6      1072.015 6        39.764               
G31  25434719.418 6 133660395.520 6       195.491 6        40.868               
G28  25789572.572 6 135525138.710 6      -622.508 6        41.504               
G29  27817503.847 7 146182016.716 7       247.115 7        42.250               
> 2024 12 27 02 43 55.0000000  0  5                                             
G32  25068832.160 7 131737573.292 7      -452.374 7        44.448               
G26  24376827.049 6 128101111.062 6      1083.409 6        39.627               
G31  25434682.429 6 133660199.508 6       192.999 6        40.214               
G28  25789688.899 7 135525759.762 7      -621.957 7        42.014               
G29  27817460.157 7 146181764.779 7       253.878 7        42.474               
> 2024 12 27 02 43 56.0000000  0  5                                             
G32  25068917.431 7 131738029.117 7      -456.643 7        44.133               
G26  24376615.605 6 128100034.446 6      1076.710 6        39.562               
G31  25434650.015 6 133660003.641 6       196.251 6        41.119               
G28  25789807.550 6 135526380.857 6      -622.368 6        41.857               
G29  27817404.763 7 146181513.370 7       245.558 7        42.085               
> 2024 12 27 02 43 57.0000000  0  5                                             
G32  25069003.024 7 131738485.401 7      -453.745 7        43.805               
G26  24376419.171 6 128098958.426 6      1078.463 6        39.708               
G31  25434605.735 6 133659807.870 6       197.990 6        40.863               
G28  25789923.627 7 135527001.992 7      -620.866 7        42.034               
G29  27817356.088 6 146181262.428 6       248.895 6        41.704               
> 2024 12 27 02 43 58.0000000  0  5                                             
G32  25069088.920 7 131738942.125 7      -460.258 7        43.644               
G26  24376206.994 6 128097882.992 6      1074.116 6        39.413               
G31  25434567.996 6 133659612.279 6       193.130 6        40.990               
G28  25790044.636 6 135527623.167 6      -614.648 6        41.989               
G29  27817307.288 6 146181012.005 6       252.452 6        41.916               
> 2024 12 27 02 43 59.0000000  0  5                                             
G32  25069176.478 7 131739399.308 7      -456.460 7        43.846               
G26  24376005.646 6 128096808.114 6      1071.794 6        39.646               
G31  25434535.153 6 133659416.768 6       195.632 6        40.710               
G28  25790155.817 7 135528244.385 7      -620.737 7        42.153               
G29  27817261.686 6 146180762.042 6       252.794 6        41.728               
> 2024 12 27 02 44 00.0000000  0  5                                             
G32  25069264.948 7 131739856.945 7      -459.146 7        44.008               
G26  24375803.762 6 128095733.809 6      1071.378 6        39.460               
G31  25434495.412 6 133659221.425 6       187.048 6        40.893               
G28  25790277.326 6 135528865.628 6      -622.511 6        41.742               
G29  27817219.015 7 146180512.581 7       252.766 7        42.176               
> 2024 12 27 02 44 01.0000000  0  5                                             
G32  25069351.344 7 131740315.021 7      -464.027 7        43.827               
G26  24375602.056 6 128094660.093 6      1072.704 6        38.787               
G31  25434461.729 6 133659026.192 6       192.719 6        40.589               
G28  25790396.620 6 135529486.909 6      -620.625 6        41.455               
G29  27817169.178 7 146180263.608 7       249.054 7        43.026               
> 2024 12 27 02 44 02.0000000  0  5                                             
G32  25069439.546 7 131740773.570 7      -456.306 7        44.178               
G26  24375401.530 6 128093586.943 6      1063.559 6        38.784               
G31  25434422.363 6 133658831.106 6       186.986 6        40.476               
G28  25790510.213 6 135530108.219 6      -621.638 6        41.531               
G29  27817119.467 7 146180015.109 7       243.457 7        42.968               
> 2024 12 27 02 44 03.0000000  0  5                                             
G32  25069525.943 7 131741232.547 7      -460.944 7        44.454               
G26  24375196.251 6 128092514.362 6      1064.521 6        39.535               
G31  25434382.355 6 133658636.135 6       205.995 6        40.251               
G28  25790631.526 6 135530729.566 6      -623.945 6        41.105               
G29  27817076.492 7 146179767.116 7       250.829 7        43.124               
> 2024 12 27 02 44 04.0000000  0  5                                             
G32  25069612.590 7 131741692.016 7      -458.661 7        44.213               
G26  24374986.200 6 128091442.394 6      1066.342 6        40.171               
G31  25434344.293 6 133658441.315 6       201.759 6        40.280               
G28  25790746.656 6 135531350.965 6      -616.996 6        41.020               
G29  27817032.766 7 146179519.625 7       248.483 7        42.991               
> 2024 12 27 02 44 05.0000000  0  5                                             
G32  25069704.454 7 131742151.922 7      -455.049 7        44.491               
G26  24374785.603 6 128090370.973 6      1065.670 6        39.881               
G31  25434305.804 6 133658246.632 6       190.380 6        40.459               
G28  25790871.543 6 135531972.396 6      -623.251 6        40.694               
G29  27816986.092 7 146179272.614 7       247.577 7        43.452               
> 2024 12 27 02 44 06.0000000  0  5                                             
G32  25069792.030 7 131742612.306 7      -458.779 7        44.077               
G26  24374583.272 6 128089300.146 6      1077.033 6        40.243               
G31  25434273.604 6 133658052.075 6       198.998 6        40.198               
G28  25790983.921 6 135532593.880 6      -624.910 6        40.756               
G29  27816938.990 7 146179026.116 7       247.726 7        43.455               
> 2024 12 27 02 44 07.0000000  0  5                                             
G32  25069878.927 7 131743073.160 7      -459.744 7        44.775               
G26  24374378.457 6 128088229.912 6      1067.221 6        39.227               
G31  25434231.862 6 133657857.699 6       190.015 6        39.907               
G28  25791100.516 6 135533215.413 6      -617.970 6        41.153               
G29  27816893.638 7 146178780.124 7       246.769 7        43.666               
> 2024 12 27 02 44 08.0000000  0  5                                             
G32  25069966.182 7 131743534.498 7      -460.901 7        44.752               
G26  24374178.163 6 128087160.304 6      1069.443 6        39.352               
G31  25434198.018 6 133657663.468 6       194.767 6        39.499               
G28  25791216.218 6 135533837.023 6      -624.904 6        40.360               
G29  27816847.697 7 146178534.653 7       245.791 7        43.515               
> 2024 12 27 02 44 09.0000000  0  5                                             
G32  25070054.473 7 131743996.294 7      -459.820 7        44.767               
G26  24373969.810 6 128086091.272 6      1073.263 6        39.696               
G31  25434155.579 6 133657469.389 6       193.685 6        39.830               
G28  25791340.122 6 135534458.675 6      -625.554 6        40.923               
G29  27816802.256 7 146178289.681 7       246.264 7        43.331               
> 2024 12 27 02 44 10.0000000  0  5                                             
G32  25070142.853 7 131744458.556 7      -458.209 7        45.095               
G26  24373765.156 6 128085022.812 6      1066.964 6        39.718               
G31  25434120.663 6 133657275.417 6       193.224 6        39.561               
G28  25791459.845 6 135535080.339 6      -622.482 6        40.506               
G29  27816753.938 7 146178045.212 7       248.112 7        43.246               
> 2024 12 27 02 44 11.0000000  0  5                                             
G32  25070231.573 7 131744921.247 7      -460.556 7        44.947               
G26  24373560.091 6 128083954.913 6      1067.296 6        39.768               
G31  25434084.871 6 133657081.591 6       199.022 6        39.493               
G28  25791577.869 6 135535702.053 6      -624.169 6        40.486               
G29  27816704.155 7 146177801.212 7       238.223 7        43.005               
> 2024 12 27 02 44 12.0000000  0  5                                             
G32  25070315.485 7 131745384.418 7      -462.753 7        45.021               
G26  24373355.169 6 128082887.599 6      1071.790 6        39.635               
G31  25434050.473 6 133656887.900 6       197.217 6        39.768               
G28  25791696.698 6 135536323.812 6      -623.187 6        41.148               
G29  27816656.659 7 146177557.704 7       241.494 7        42.691               
> 2024 12 27 02 44 13.0000000  0  5                                             
G32  25070409.048 7 131745848.040 7      -464.689 7        45.387               
G26  24373150.444 6 128081820.855 6      1063.848 6        39.298               
G31  25434011.483 6 133656694.344 6       194.915 6        39.701               
G28  25791815.635 6 135536945.608 6      -622.441 6        40.946               
G29  27816609.485 7 146177314.714 7       240.168 7        42.906               
> 2024 12 27 02 44 14.0000000  0  5                                             
G32  25070496.302 7 131746312.121 7      -468.142 7        45.461               
G26  24372944.611 6 128080754.705 6      1062.236 6        39.366               
G31  25433976.156 6 133656500.916 6       192.143 6        39.391               
G28  25791933.034 6 135537567.449 6      -619.797 6        40.581               
G29  27816566.385 7 146177072.201 7       243.316 7        42.064               
> 2024 12 27 02 44 15.0000000  0  5                                             
G32  25070584.057 7 131746776.664 7      -463.302 7        45.294               
G26  24372743.888 6 128079689.163 6      1057.877 6        39.032               
G31  25433940.454 6 133656307.645 6       182.150 6        39.499               
G28  25792050.612 6 135538189.311 6      -623.304 6        40.978               
G29  27816516.083 6 146176830.212 6       240.181 6        41.727               
> 2024 12 27 02 44 16.0000000  0  5                                             
G32  25070674.724 7 131747241.648 7      -464.603 7        45.482               
G26  24372539.305 6 128078624.143 6      1063.078 6        39.382               
G31  25433907.235 6 133656114.479 6       195.458 6        40.388               
G28  25792171.067 6 135538811.239 6      -624.747 6        40.656               
G29  27816465.979 6 146176588.679 6       237.304 6        41.254               
> 2024 12 27 02 44 17.0000000  0  5                                             
G32  25070760.442 7 131747707.105 7      -466.552 7        45.361               
G26  24372343.783 6 128077559.721 6      1068.360 6        39.334               
G31  25433866.458 6 133655921.429 6       193.607 6        40.041               
G28  25792287.645 6 135539433.153 6      -623.709 6        40.806               
G29  27816424.701 6 146176347.681 6       238.979 6        41.481               
> 2024 12 27 02 44 18.0000000  0  5                                             
G32  25070849.859 7 131748173.002 7      -468.183 7        44.865               
G26  24372142.309 6 128076495.889 6      1053.961 6        39.611               
G31  25433826.664 6 133655728.532 6       190.048 6        40.310               
G28  25792410.745 6 135540055.163 6      -625.049 6        41.081               
G29  27816374.257 7 146176107.148 7       242.505 7        42.157               
> 2024 12 27 02 44 19.0000000  0  5                                             
G32  25070936.363 7 131748639.336 7      -467.515 7        45.100               
G26  24371931.937 6 128075432.575 6      1063.903 6        39.915               
G31  25433794.106 6 133655535.775 6       186.605 6        41.130               
G28  25792525.374 6 135540677.127 6      -618.630 6        41.045               
G29  27816331.228 7 146175867.070 7       240.170 7        42.419               
> 2024 12 27 02 44 20.0000000  0  5                                             
G32  25071025.833 7 131749106.144 7      -465.420 7        44.861               
G26  24371729.517 6 128074369.881 6      1061.962 6        39.579               
G31  25433761.674 6 133655343.134 6       194.989 6        40.091               
G28  25792648.742 6 135541299.166 6      -621.601 6        40.899               
G29  27816286.895 7 146175627.529 7       242.288 7        43.067               
> 2024 12 27 02 44 21.0000000  0  5                                             
G32  25071117.948 7 131749573.417 7      -468.527 7        44.898               
G26  24371532.225 6 128073307.767 6      1062.451 6        39.217               
G31  25433724.435 6 133655150.615 6       194.857 6        41.148               
G28  25792765.052 6 135541921.265 6      -625.825 6        40.944               
G29  27816243.366 7 146175388.449 7       241.778 7        43.145               
> 2024 12 27 02 44 22.0000000  0  5                                             
G32  25071206.221 7 131750041.160 7      -471.863 7        44.676               
G26  24371331.431 6 128072246.243 6      1060.507 6        39.573               
G31  25433686.231 6 133654958.272 6       182.895 6        40.523               
G28  25792881.022 6 135542543.388 6      -621.492 6        41.079               
G29  27816200.963 7 146175149.911 7       238.571 7        43.139               
> 2024 12 27 02 44 23.0000000  0  5                                             
G32  25071292.206 7 131750509.360 7      -466.564 7        44.245               
G26  24371120.809 6 128071185.306 6      1057.234 6        39.180               
G31  25433651.297 6 133654766.054 6       191.045 6        40.805               
G28  25793003.925 6 135543165.575 6      -612.224 6        41.076               
G29  27816154.593 7 146174911.862 7       243.023 7        42.661               
> 2024 12 27 02 44 24.0000000  0  5                                             
G32  25071386.537 7 131750978.027 7      -469.481 7        44.485               
G26  24370924.428 6 128070124.941 6      1060.604 6        39.042               
G31  25433616.417 6 133654573.952 6       189.181 6        40.637               
G28  25793121.449 6 135543787.798 6      -626.320 6        40.762               
G29  27816111.368 7 146174674.310 7       241.928 7        42.063               
> 2024 12 27 02 44 25.0000000  0  5                                             
G32  25071472.487 7 131751447.133 7      -465.420 7        44.817               
G26  24370718.917 6 128069065.124 6      1059.711 6        39.534               
G31  25433578.642 6 133654381.998 6       188.414 6        40.961               
G28  25793243.191 6 135544410.042 6      -620.378 6        41.324               
G29  27816062.210 7 146174437.227 7       239.095 7        42.330               
> 2024 12 27 02 44 26.0000000  0  5                                             
G32  25071564.334 7 131751916.739 7      -471.978 7        44.816               
G26  24370524.198 6 128068005.958 6      1058.573 6        39.921               
G31  25433540.652 6 133654190.206 6       188.975 6        40.483               
G28  25793355.087 6 135545032.358 6      -619.794 6        41.815               
G29  27816014.518 6 146174200.704 6       231.253 6        41.640               
> 2024 12 27 02 44 27.0000000  0  5                                             
G32  25071655.573 7 131752386.784 7      -476.695 7        45.497               
G26  24370315.166 6 128066947.348 6      1058.652 6        39.493               
G31  25433506.469 6 133653998.538 6       184.062 6        40.574               
G28  25793477.257 6 135545654.714 6      -617.516 6        41.204               
G29  27815970.721 6 146173964.659 6       231.883 6        41.371               
> 2024 12 27 02 44 28.0000000  0  5                                             
G32  25071744.936 7 131752857.509 7      -472.665 7        46.075               
G26  24370123.932 6 128065889.545 6      1058.488 6        39.852               
G31  25433471.981 6 133653807.213 6       189.925 6        40.797               
G28  25793595.639 6 135546277.319 6      -623.609 6        41.395               
G29  27815920.634 6 146173729.306 6       232.847 6        40.959               
> 2024 12 27 02 44 29.0000000  0  5                                             
G32  25071836.658 7 131753328.919 7      -470.918 7        46.291               
G26  24369919.707 6 128064832.523 6      1050.219 6        39.706               
G31  25433431.347 6 133653616.254 6       193.589 6        40.437               
G28  25793719.186 6 135546900.179 6      -626.804 6        41.576               
G29  27815873.871 6 146173494.674 6       230.066 6        41.140               
> 2024 12 27 02 44 30.0000000  0  5                                             
G32  25071929.183 7 131753800.774 7      -470.804 7        46.154               
G26  24369715.428 6 128063776.069 6      1056.951 6        40.045               
G31  25433393.590 6 133653425.447 6       187.642 6        40.461               
G28  25793832.904 7 135547523.082 7      -621.486 7        42.565               
G29  27815829.716 6 146173260.552 6       231.872 6        41.090               
> 2024 12 27 02 44 31.0000000  0  5                                             
G32  25072014.669 7 131754273.113 7      -471.083 7        46.231               
G26  24369517.296 6 128062720.226 6      1047.299 6        39.803               
G31  25433358.442 6 133653234.758 6       195.602 6        40.646               
G28  25793954.592 6 135548146.034 6      -621.811 6        41.915               
G29  27815790.387 6 146173026.919 6       230.216 6        41.739               
> 2024 12 27 02 44 32.0000000  0  5                                             
G32  25072106.444 7 131754745.914 7      -472.123 7        45.861               
G26  24369314.286 6 128061664.976 6      1058.018 6        40.274               
G31  25433320.935 6 133653044.217 6       190.846 6        40.963               
G28  25794070.348 7 135548769.042 7      -622.689 7        42.552               
G29  27815745.928 6 146172793.795 6       231.715 6        41.457               
> 2024 12 27 02 44 33.0000000  0  5                                             
G32  25072193.198 7 131755219.163 7      -472.650 7        45.730               
G26  24369117.727 6 128060610.290 6      1055.676 6        41.056               
G31  25433288.842 6 133652853.800 6       189.794 6        41.564               
G28  25794189.266 7 135549392.071 7      -626.786 7        42.885               
G29  27815703.686 6 146172561.168 6       232.776 6        41.149               
> 2024 12 27 02 44 34.0000000  0  5                                             
G32  25072284.277 7 131755692.855 7      -474.419 7        46.022               
G26  24368916.486 6 128059556.165 6      1054.152 6        40.489               
G31  25433247.368 6 133652663.504 6       191.793 6        40.994               
G28  25794310.097 7 135550015.121 7      -621.917 7        42.469               
G29  27815664.392 6 146172329.019 6       233.295 6        41.079               
> 2024 12 27 02 44 35.0000000  0  5                                             
G32  25072372.013 7 131756167.012 7      -474.627 7        45.716               
G26  24368712.458 6 128058502.599 6      1061.343 6        40.486               
G31  25433212.166 6 133652473.341 6       190.933 6        40.756               
G28  25794424.852 7 135550638.215 7      -626.491 7        42.745               
G29  27815617.986 6 146172097.361 6       232.128 6        41.600               
> 2024 12 27 02 44 36.0000000  0  5                                             
G32  25072465.558 7 131756641.621 7      -471.987 7        45.594               
G26  24368515.076 6 128057449.682 6      1052.735 6        40.907               
G31  25433177.786 6 133652283.329 6       190.500 6        40.638               
G28  25794543.770 7 135551261.357 7      -621.856 7        42.670               
G29  27815578.299 7 146171866.206 7       227.469 7        42.174               
> 2024 12 27 02 44 37.0000000  0  5                                             
G32  25072555.332 7 131757116.693 7      -477.677 7        45.496               
G26  24368314.086 6 128056397.258 6      1054.500 6        40.789               
G31  25433140.708 6 133652093.430 6       181.996 6        41.337               
G28  25794663.742 7 135551884.518 7      -620.659 7        42.555               
G29  27815534.806 7 146171635.540 7       229.273 7        42.121               
> 2024 12 27 02 44 38.0000000  0  5                                             
G32  25072644.659 7 131757592.214 7      -473.927 7        45.228               
G26  24368113.828 6 128055345.473 6      1052.161 6        41.059               
G31  25433102.861 6 133651903.686 6       192.973 6        41.614               
G28  25794785.198 7 135552507.738 7      -627.920 7        42.174               
G29  27815493.225 7 146171405.370 7       232.914 7        42.537               
> 2024 12 27 02 44 39.0000000  0  5                                             
G32  25072736.613 7 131758068.214 7      -476.630 7        45.546               
G26  24367912.533 6 128054294.275 6      1050.852 6        41.176               
G31  25433069.106 6 133651714.078 6       190.045 6        41.220               
G28  25794901.883 6 135553130.993 6      -621.801 6        41.914               
G29  27815448.141 7 146171175.708 7       229.410 7        42.894               
> 2024 12 27 02 44 40.0000000  0  5                                             
G32  25072827.602 7 131758544.657 7      -481.233 7        45.359               
G26  24367713.812 6 128053243.601 6      1052.542 6        41.132               
G31  25433032.314 6 133651524.597 6       190.436 6        40.255               
G28  25795020.837 7 135553754.271 7      -626.004 7        42.159               
G29  27815401.610 7 146170946.528 7       229.014 7        42.816               
> 2024 12 27 02 44 41.0000000  0  5                                             
G32  25072917.197 7 131759021.541 7      -477.698 7        44.590               
G26  24367513.268 6 128052193.540 6      1056.572 6        41.443               
G31  25432990.233 6 133651335.244 6       189.302 6        40.376               
G28  25795134.788 6 135554377.582 6      -624.186 6        41.556               
G29  27815355.294 7 146170717.847 7       228.363 7        42.788               
> 2024 12 27 02 44 42.0000000  0  5                                             
G32  25073009.848 7 131759498.896 7      -475.195 7        45.444               
G26  24367307.738 6 128051144.032 6      1047.963 6        40.792               
G31  25432957.032 6 133651145.999 6       187.237 6        40.160               
G28  25795250.722 6 135555000.931 6      -624.441 6        41.368               
G29  27815306.815 7 146170489.663 7       227.843 7        42.051               
> 2024 12 27 02 44 43.0000000  0  5                                             
G32  25073098.246 7 131759976.691 7      -479.860 7        45.669               
G26  24367117.933 6 128050095.095 6      1046.831 6        40.714               
G31  25432916.255 6 133650956.891 6       185.713 6        40.261               
G28  25795369.873 6 135555624.302 6      -630.300 6        40.946               
G29  27815264.734 7 146170261.966 7       225.424 7        42.011               
> 2024 12 27 02 44 44.0000000  0  5                                             
G32  25073187.645 7 131760454.951 7      -478.441 7        45.388               
G26  24366911.475 6 128049046.737 6      1055.946 6        40.914               
G31  25432889.648 6 133650767.921 6       189.851 6        39.831               
G28  25795489.863 6 135556247.713 6      -626.074 6        41.154               
G29  27815220.776 6 146170034.738 6       228.251 6        41.570               
> 2024 12 27 02 44 45.0000000  0  5                                             
G32  25073276.436 7 131760933.643 7      -480.137 7        44.949               
G26  24366704.158 6 128047998.934 6      1045.617 6        40.383               
G31  25432846.155 6 133650579.087 6       183.341 6        40.108               
G28  25795606.316 6 135556871.119 6      -625.410 6        40.836               
G29  27815171.207 6 146169808.004 6       226.662 6        41.813               
> 2024 12 27 02 44 46.0000000  0  5                                             
G32  25073368.712 7 131761412.804 7      -480.361 7        44.620               
G26  24366511.852 6 128046951.734 6      1038.604 6        40.087               
G31  25432808.898 6 133650390.358 6       182.383 6        40.141               
G28  25795725.770 6 135557494.612 6      -622.721 6        40.978               
G29  27815134.683 6 146169581.767 6       226.364 6        41.799               
> 2024 12 27 02 44 47.0000000  0  5                                             
G32  25073460.112 7 131761892.395 7      -480.023 7        44.931               
G26  24366312.684 6 128045905.058 6      1039.032 6        40.613               
G31  25432777.627 6 133650201.763 6       184.814 6        40.188               
G28  25795841.186 6 135558118.089 6      -619.867 6        40.605               
G29  27815092.333 6 146169356.032 6       222.275 6        41.569               
> 2024 12 27 02 44 48.0000000  0  5                                             
G32  25073553.549 7 131762372.426 7      -480.568 7        45.421               
G26  24366113.301 6 128044858.945 6      1039.302 6        40.352               
G31  25432740.066 6 133650013.262 6       194.064 6        39.775               
G28  25795966.734 6 135558741.595 6      -625.250 6        40.157               
G29  27815051.199 7 146169130.733 7       225.681 7        42.235               
> 2024 12 27 02 44 49.0000000  0  5                                             
G32  25073644.699 7 131762852.962 7      -478.674 7        45.114               
G26  24365916.635 6 128043813.483 6      1042.581 6        40.288               
G31  25432704.614 6 133649824.949 6       190.091 6        40.040               
G28  25796080.988 6 135559365.185 6      -629.030 6        40.148               
G29  27815010.654 7 146168905.990 7       227.250 7        42.188               
> 2024 12 27 02 44 50.0000000  0  5                                             
G32  25073733.865 7 131763333.960 7      -479.550 7        44.898               
G26  24365716.198 6 128042768.577 6      1044.711 6        41.016               
G31  25432668.376 6 133649636.763 6       182.016 6        40.264               
G28  25796198.763 6 135559988.830 6      -630.557 6        39.797               
G29  27814972.932 6 146168681.760 6       215.791 6        41.750               
> 2024 12 27 02 44 51.0000000  0  5                                             
G32  25073826.820 7 131763815.409 7      -483.740 7        45.350               
G26  24365519.460 6 128041724.268 6      1048.730 6        40.777               
G31  25432630.172 6 133649448.726 6       190.384 6        39.845               
G28  25796314.161 6 135560612.480 6      -626.375 6        39.339               
G29  27814931.637 6 146168458.005 6       222.751 6        41.982               
> 2024 12 27 02 44 52.0000000  0  5                                             
G32  25073919.596 7 131764297.323 7      -478.537 7        45.120               
G26  24365317.862 6 128040680.508 6      1039.675 6        40.917               
G31  25432599.473 6 133649260.796 6       189.304 6        39.995               
G28  25796431.793 6 135561236.186 6      -624.272 6        39.669               
G29  27814888.394 7 146168234.741 7       224.257 7        42.952               
> 2024 12 27 02 44 53.0000000  0  5                                             
G32  25074009.960 7 131764779.709 7      -485.761 7        45.556               
G26  24365121.499 6 128039637.354 6      1039.286 6        41.266               
G31  25432557.123 6 133649073.013 6       186.663 6        40.210               
G28  25796550.836 6 135561859.935 6      -627.704 6        39.581               
G29  27814846.366 7 146168011.992 7       220.369 7        42.410               
> 2024 12 27 02 44 54.0000000  0  5                                             
G32  25074102.360 7 131765262.553 7      -483.430 7        45.073               
G26  24364921.044 6 128038594.761 6      1047.109 6        40.730               
G31  25432519.741 6 133648885.383 6       191.397 6        39.709               
G28  25796670.880 6 135562483.729 6      -629.820 6        39.465               
G29  27814797.780 7 146167789.751 7       218.113 7        42.204               
> 2024 12 27 02 44 55.0000000  0  5                                             
G32  25074192.295 7 131765745.828 7      -485.577 7        45.093               
G26  24364726.450 6 128037552.768 6      1038.775 6        40.596               
G31  25432489.918 6 133648697.840 6       194.789 6        39.520               
G28  25796789.942 6 135563107.536 6      -624.120 6        39.598               
G29  27814762.417 6 146167567.960 6       219.746 6        41.890               
> 2024 12 27 02 44 56.0000000  0  5                                             
G32  25074281.944 7 131766229.559 7      -484.841 7        44.987               
G26  24364522.136 6 128036511.319 6      1047.107 6        40.975               
G31  25432451.678 6 133648510.440 6       185.952 6        39.558               
G28  25796908.288 6 135563731.368 6      -628.515 6        39.667               
G29  27814712.545 6 146167346.684 6       224.837 6        41.862               
> 2024 12 27 02 44 57.0000000  0  5                                             
G32  25074374.863 7 131766713.758 7      -488.538 7        44.975               
G26  24364325.934 6 128035470.479 6      1040.637 6        40.785               
G31  25432420.765 6 133648323.163 6       182.775 6        39.937               
G28  25797026.492 6 135564355.256 6      -624.899 6        39.677               
G29  27814671.571 6 146167125.916 6       218.375 6        41.270               
> 2024 12 27 02 44 58.0000000  0  5                                             
G32  25074466.924 7 131767198.401 7      -488.260 7        44.682               
G26  24364131.537 6 128034430.180 6      1036.462 6        40.889               
G31  25432377.093 6 133648136.049 6       185.750 6        39.657               
G28  25797145.178 6 135564979.172 6      -625.181 6        39.329               
G29  27814631.741 6 146166905.633 6       222.795 6        40.973               
> 2024 12 27 02 44 59.0000000  0  5                                             
G32  25074555.143 7 131767683.505 7      -483.333 7        45.020               
G26  24363931.618 6 128033390.473 6      1042.534 6        40.189               
G31  25432346.287 6 133647949.030 6       191.336 6        40.328               
G28  25797262.166 6 135565603.107 6      -621.980 6        39.712               
G29  27814585.103 6 146166685.839 6       221.070 6        41.266               
> 2024 12 27 02 45 00.0000000  0  5                                             
G32  25074650.028 7 131768169.022 7      -484.975 7        45.049               
G26  24363731.628 6 128032351.322 6      1042.500 6        40.171               
G31  25432307.332 6 133647762.108 6       189.295 6        40.715               
G28  25797382.532 6 135566227.074 6      -621.880 6        39.803               
G29  27814543.307 6 146166466.517 6       214.901 6        41.181               
> 2024 12 27 02 45 01.0000000  0  5                                             
G32  25074746.789 7 131768655.005 7      -490.519 7        45.156               
G26  24363530.709 6 128031312.723 6      1031.103 6        40.262               
G31  25432280.797 6 133647575.319 6       188.583 6        40.438               
G28  25797502.415 6 135566851.063 6      -618.675 6        39.809               
G29  27814498.706 6 146166247.667 6       216.340 6        41.986               
> 2024 12 27 02 45 03.0000000  0  5                                             
G32  25074935.825 7 131769628.387 7      -489.280 7        46.228               
G26  24363137.733 6 128029237.324 6      1038.433 6        41.066               
G31  25432211.411 6 133647202.187 6       188.627 6        40.199               
G28  25797740.449 6 135568099.167 6      -629.212 6        40.321               
G29  27814419.940 6 146165811.530 6       220.649 6        41.061               
> 2024 12 27 02 45 04.0000000  0  5                                             
G32  25075029.423 7 131770115.774 7      -486.046 7        46.837               
G26  24362943.551 6 128028200.506 6      1034.440 6        40.956               
G31  25432170.813 6 133647015.848 6       186.847 6        40.206               
G28  25797858.491 6 135568723.310 6      -624.205 6        40.551               
G29  27814379.842 6 146165594.198 6       217.019 6        41.239               
> 2024 12 27 02 45 06.0000000  0  5                                             
G32  25075220.872 7 131771091.983 7      -487.821 7        46.843               
G26  24362549.753 6 128026128.643 6      1037.232 6        41.182               
G31  25432104.090 6 133646643.570 6       185.651 6        40.103               
G28  25798102.690 6 135569971.721 6      -621.631 6        40.438               
G29  27814296.000 6 146165161.105 6       219.043 6        41.490               
> 2024 12 27 02 45 07.0000000  0  5                                             
G32  25075310.753 7 131771580.780 7      -491.132 7        46.884               
G26  24362354.802 6 128025093.563 6      1028.861 6        41.180               
G31  25432070.478 6 133646457.634 6       189.449 6        39.988               
G28  25798224.574 6 135570595.974 6      -626.105 6        41.498               
G29  27814264.265 6 146164945.296 6       218.199 6        41.906               
> 2024 12 27 02 45 08.0000000  0  5                                             
G32  25075406.066 7 131772070.020 7      -488.399 7        46.409               
G26  24362160.226 6 128024059.082 6      1036.683 6        41.069               
G31  25432032.238 6 133646271.820 6       178.238 6        39.308               
G28  25798347.245 6 135571220.263 6      -623.414 6        41.781               
G29  27814214.839 6 146164729.974 6       217.173 6        41.627               
> 2024 12 27 02 45 09.0000000  0  5                                             
G32  25075495.429 7 131772559.734 7      -490.924 7        46.296               
G26  24361960.129 6 128023025.156 6      1030.499 6        40.989               
G31  25431997.733 6 133646086.126 6       183.201 6        39.346               
G28  25798463.286 6 135571844.592 6      -623.113 6        41.094               
G29  27814177.511 6 146164515.159 6       207.467 6        41.175               
> 2024 12 27 02 45 10.0000000  0  5                                             
G32  25075587.705 7 131773049.891 7      -487.108 7        46.101               
G26  24361767.608 6 128021991.811 6      1035.718 6        41.023               
G31  25431963.586 6 133645900.538 6       180.973 6        39.866               
G28  25798583.652 6 135572468.955 6      -621.966 6        41.076               
G29  27814133.142 6 146164300.835 6       217.719 6        40.509               
> 2024 12 27 02 45 11.0000000  0  5                                             
G32  25075676.085 7 131773540.489 7      -490.475 7        45.782               
G26  24361568.869 6 128020959.035 6      1032.986 6        40.552               
G31  25431927.258 6 133645715.119 6       183.641 6        40.074               
G28  25798703.589 6 135573093.340 6      -621.770 6        41.458               
G29  27814097.690 6 146164086.980 6       216.147 6        40.315               
> 2024 12 27 02 45 12.0000000  0  5                                             
G32  25075767.342 7 131774031.609 7      -494.066 7        45.197               
G26  24361371.095 6 128019926.874 6      1035.173 6        40.857               
G31  25431892.646 6 133645529.847 6       183.371 6        39.980               
G28  25798823.365 7 135573717.818 7      -616.543 7        42.094               
G29  27814049.372 6 146163873.699 6       208.995 6        40.488               
> 2024 12 27 02 45 13.0000000  0  5                                             
G32  25075861.852 7 131774523.142 7      -491.419 7        45.333               
G26  24361174.428 6 128018895.270 6      1025.661 6        41.150               
G31  25431853.602 6 133645344.682 6       187.127 6        39.799               
G28  25798943.409 6 135574342.297 6      -625.452 6        41.718               
G29  27814013.134 6 146163660.854 6       213.566 6        41.178               
> 2024 12 27 02 45 14.0000000  0  5                                             
G32  25075955.914 7 131775015.143 7      -490.814 7        45.401               
G26  24360984.338 6 128017864.276 6      1023.087 6        41.140               
G31  25431824.690 6 133645159.659 6       192.376 6        39.397               
G28  25799061.381 7 135574966.825 7      -627.999 7        42.175               
G29  27813965.763 6 146163448.524 6       216.367 6        40.385               
> 2024 12 27 02 45 15.0000000  0  5                                             
G32  25076052.103 7 131775507.607 7      -494.871 7        45.114               
G26  24360783.061 6 128016833.817 6      1028.072 6        40.826               
G31  25431781.751 6 133644974.786 6       188.196 6        38.761               
G28  25799178.744 7 135575591.373 7      -622.670 7        42.436               
G29  27813928.863 6 146163236.699 6       213.071 6        40.726               
> 2024 12 27 02 45 16.0000000  0  5                                             
G32  25076146.166 7 131776000.538 7      -491.806 7        45.356               
G26  24360586.144 6 128015803.984 6      1028.705 6        40.224               
G31  25431748.318 6 133644790.028 6       197.701 6        38.632               
G28  25799298.413 7 135576215.974 7      -619.850 7        42.509               
G29  27813890.087 6 146163025.369 6       210.909 6        40.855               
> 2024 12 27 02 45 17.0000000  0  5                                             
G32  25076240.550 7 131776493.923 7      -492.218 7        45.434               
G26  24360388.013 6 128014774.711 6      1029.303 6        40.209               
G31  25431709.274 6 133644605.409 6       182.579 6        39.289               
G28  25799418.136 7 135576840.603 7      -620.114 7        42.908               
G29  27813851.919 6 146162814.525 6       204.006 6        41.682               
> 2024 12 27 02 45 18.0000000  0  5                                             
G32  25076336.149 7 131776987.769 7      -490.754 7        45.590               
G26  24360193.776 6 128013745.993 6      1029.671 6        40.134               
G31  25431673.250 6 133644420.911 6       190.674 6        38.939               
G28  25799536.411 7 135577465.279 7      -635.632 7        43.034               
G29  27813810.642 6 146162604.164 6       203.116 6        41.568               
> 2024 12 27 02 45 19.0000000  0  5                                             
G32  25076431.838 7 131777482.053 7      -496.417 7        46.301               
G26  24359991.892 6 128012717.837 6      1033.295 6        40.025               
G31  25431638.191 6 133644236.526 6       178.376 6        39.505               
G28  25799657.509 7 135578089.960 7      -627.330 7        43.528               
G29  27813776.012 6 146162394.285 6       209.464 6        40.882               
> 2024 12 27 02 45 20.0000000  0  5                                             
G32  25076528.652 7 131777976.808 7      -501.047 7        46.574               
G26  24359794.957 6 128011690.284 6      1029.380 6        38.933               
G31  25431601.041 6 133644052.269 6       180.781 6        39.148               
G28  25799773.890 7 135578714.684 7      -625.994 7        43.271               
G29  27813736.932 6 146162184.923 6       209.034 6        40.969               
> 2024 12 27 02 45 21.0000000  0  5                                             
G32  25076619.855 7 131778472.010 7      -494.424 7        45.790               
G26  24359598.363 6 128010663.295 6      1027.068 6        39.689               
G31  25431568.037 6 133643868.167 6       177.701 6        38.915               
G28  25799897.418 7 135579339.459 7      -626.492 7        43.326               
G29  27813690.062 6 146161976.041 6       212.419 6        41.105               
> 2024 12 27 02 45 22.0000000  0  5                                             
G32  25076711.488 7 131778967.718 7      -498.840 7        46.319               
G26  24359409.737 6 128009636.892 6      1023.393 6        39.822               
G31  25431531.906 6 133643684.195 6       182.621 6        39.350               
G28  25800018.017 7 135579964.288 7      -624.053 7        43.746               
G29  27813658.398 6 146161767.709 6       203.665 6        41.159               
> 2024 12 27 02 45 23.0000000  0  5                                             
G32  25076807.033 7 131779463.873 7      -496.133 7        45.421               
G26  24359210.533 6 128008611.146 6      1008.856 6        39.668               
G31  25431501.922 6 133643500.378 6       179.363 6        39.125               
G28  25800133.254 7 135580589.150 7      -627.241 7        43.590               
G29  27813615.869 6 146161559.874 6       204.999 6        40.918               
> 2024 12 27 02 45 24.0000000  0  5                                             
G32  25076901.650 7 131779960.486 7      -499.194 7        45.674               
G26  24359018.388 6 128007585.892 6      1025.758 6        39.822               
G31  25431465.397 6 133643316.662 6       182.607 6        38.660               
G28  25800255.639 7 135581214.034 7      -624.734 7        44.018               
G29  27813573.788 6 146161352.540 6       207.911 6        41.104               
> 2024 12 27 02 45 25.0000000  0  5                                             
G32  25076991.621 7 131780457.526 7      -497.365 7        45.371               
G26  24358823.454 6 128006561.236 6      1023.152 6        40.308               
G31  25431426.550 6 133643133.075 6       181.949 6        38.483               
G28  25800374.986 7 135581838.965 7      -624.614 7        43.754               
G29  27813529.348 6 146161145.654 6       210.600 6        40.813               
> 2024 12 27 02 45 26.0000000  0  5                                             
G32  25077087.434 7 131780955.071 7      -499.056 7        45.506               
G26  24358633.078 6 128005537.162 6      1022.636 6        39.965               
G31  25431391.991 6 133642949.647 6       183.951 6        38.397               
G28  25800490.241 7 135582463.936 7      -623.575 7        43.652               
G29  27813496.790 6 146160939.311 6       204.784 6        41.297               
> 2024 12 27 02 45 27.0000000  0  5                                             
G32  25077185.053 7 131781453.048 7      -499.596 7        46.036               
G26  24358439.431 6 128004513.657 6      1021.276 6        39.925               
G31  25431359.863 6 133642766.327 6       180.117 6        38.688               
G28  25800608.927 7 135583088.937 7      -622.124 7        42.846               
G29  27813449.366 6 146160733.445 6       200.594 6        40.380               
> 2024 12 27 02 45 28.0000000  0  5                                             
G32  25077282.993 7 131781951.513 7      -498.953 7        46.176               
G26  24358244.462 6 128003490.747 6      1020.415 6        40.371               
G31  25431321.695 6 133642583.185 6       184.975 6        38.339               
G28  25800728.703 7 135583714.014 7      -628.417 7        42.579               
G29  27813409.411 6 146160528.090 6       200.975 6        40.028               
> 2024 12 27 02 45 29.0000000  0  5                                             
G32  25077376.877 7 131782450.460 7      -500.286 7        46.139               
G26  24358052.549 6 128002468.425 6      1021.809 6        39.999               
G31  25431285.438 6 133642400.185 6       181.645 6        38.281               
G28  25800847.354 7 135584339.144 7      -626.374 7        42.575               
G29  27813374.977 6 146160323.274 6       205.072 6        40.269               
> 2024 12 27 02 45 31.0000000  0  5                                             
G32  25077569.165 7 131783449.756 7      -500.789 7        46.059               
G26  24357665.899 6 128000425.589 6      1027.199 6        40.799               
G31  25431217.518 6 133642034.594 6       181.464 6        39.069               
G28  25801081.759 7 135585589.512 7      -623.568 7        42.120               
G29  27813298.069 6 146159915.139 6       202.927 6        39.066               
> 2024 12 27 02 45 32.0000000  0  5                                             
G32  25077663.353 7 131783950.099 7      -501.352 7        46.081               
G26  24357470.108 6 127999405.039 6      1022.340 6        41.375               
G31  25431184.657 6 133641851.991 6       181.138 6        39.484               
G28  25801199.391 6 135586214.742 6      -624.281 6        41.513               
G29  27813257.810 6 146159711.798 6       202.079 6        38.990               
> 2024 12 27 02 45 33.0000000  0  5                                             
G32  25077755.217 7 131784450.908 7      -501.943 7        45.823               
G26  24357278.016 6 127998385.090 6      1016.666 6        41.763               
G31  25431144.613 6 133641669.534 6       175.235 6        39.352               
G28  25801315.486 6 135586840.051 6      -625.688 6        41.295               
G29  27813221.107 6 146159508.963 6       200.921 6        39.441               
> 2024 12 27 02 45 34.0000000  0  5                                             
G32  25077853.408 7 131784952.156 7      -500.245 7        45.569               
G26  24357086.103 6 127997365.705 6      1019.982 6        41.869               
G31  25431123.759 6 133641487.212 6       182.750 6        39.213               
G28  25801433.672 6 135587465.355 6      -620.622 6        41.298               
G29  27813179.990 6 146159306.628 6       200.526 6        38.512               
> 2024 12 27 02 45 35.0000000  0  5                                             
G32  25077946.845 7 131785453.844 7      -501.122 7        45.357               
G26  24356888.883 6 127996346.862 6      1015.169 6        41.679               
G31  25431082.035 6 133641304.963 6       177.999 6        39.072               
G28  25801549.392 6 135588090.707 6      -629.988 6        41.473               
G29  27813145.735 6 146159104.776 6       199.286 6        39.027               
> 2024 12 27 02 45 36.0000000  0  5                                             
G32  25078035.958 7 131785956.040 7      -501.046 7        45.678               
G26  24356692.538 6 127995328.629 6      1019.826 6        41.282               
G31  25431043.545 6 133641122.915 6       188.557 6        39.903               
G28  25801672.420 6 135588716.108 6      -622.481 6        41.437               
G29  27813107.192 6 146158903.451 6       206.225 6        39.056               
> 2024 12 27 02 45 37.0000000  0  5                                             
G32  25078131.092 7 131786458.650 7      -506.700 7        44.926               
G26  24356496.675 6 127994310.953 6      1017.238 6        41.454               
G31  25431018.618 6 133640940.930 6       190.658 6        39.638               
G28  25801785.978 6 135589341.514 6      -620.445 6        41.265               
G29  27813071.293 6 146158702.618 6       190.083 6        39.508               
> 2024 12 27 02 45 38.0000000  0  5                                             
G32  25078226.781 7 131786961.769 7      -502.211 7        44.472               
G26  24356301.724 6 127993293.888 6      1019.655 6        41.331               
G31  25430989.384 6 133640759.167 6       184.045 6        40.026               
G28  25801908.648 6 135589967.014 6      -623.263 6        40.720               
G29  27813035.841 6 146158502.293 6       206.901 6        39.863               
> 2024 12 27 02 45 39.0000000  0  5                                             
G32  25078325.704 7 131787465.390 7      -506.238 7        44.244               
G26  24356109.668 6 127992277.457 6      1020.002 6        41.480               
G31  25430946.195 6 133640577.555 6       182.110 6        39.794               
G28  25802027.424 6 135590592.596 6      -630.477 6        40.821               
G29  27812990.168 6 146158302.519 6       202.241 6        39.405               
> 2024 12 27 02 45 40.0000000  0  5                                             
G32  25078421.714 7 131787969.480 7      -506.501 7        44.366               
G26  24355913.341 6 127991261.608 6      1013.388 6        41.011               
G31  25430915.639 6 133640396.077 6       180.366 6        40.129               
G28  25802142.393 6 135591218.202 6      -628.689 6        39.975               
G29  27812957.164 6 146158103.272 6       195.559 6        39.236               
> 2024 12 27 02 45 41.0000000  0  5                                             
G32  25078520.780 7 131788474.027 7      -505.408 7        44.928               
G26  24355722.089 6 127990246.330 6      1016.718 6        40.380               
G31  25430877.757 6 133640214.734 6       180.465 6        39.861               
G28  25802259.024 6 135591843.850 6      -618.865 6        39.466               
G29  27812918.602 6 146157904.478 6       200.944 6        39.559               
> 2024 12 27 02 45 42.0000000  0  5                                             
G32  25078618.434 7 131788979.041 7      -507.256 7        45.051               
G26  24355526.102 6 127989231.635 6      1013.751 6        40.625               
G31  25430849.684 6 133640033.528 6       183.376 6        39.650               
G28  25802378.497 6 135592469.553 6      -622.722 6        39.584               
G29  27812892.299 6 146157706.215 6       199.556 6        39.953               
> 2024 12 27 02 45 43.0000000  0  5                                             
G32  25078712.997 7 131789484.511 7      -507.987 7        45.359               
G26  24355335.100 6 127988217.515 6      1013.206 6        40.454               
G31  25430811.302 6 133639852.429 6       185.601 6        39.848               
G28  25802499.273 6 135593095.289 6      -625.191 6        39.347               
G29  27812848.234 6 146157508.439 6       197.627 6        40.126               
> 2024 12 27 02 45 44.0000000  0  5                                             
G32  25078811.295 7 131789990.446 7      -504.200 7        45.089               
G26  24355150.262 6 127987203.952 6      1012.237 6        40.957               
G31  25430781.586 6 133639671.439 6       184.399 6        41.081               
G28  25802614.260 6 135593721.020 6      -638.150 6        39.304               
G29  27812812.621 6 146157311.148 6       195.605 6        40.006               
> 2024 12 27 02 45 46.0000000  0  5                                             
G32  25079003.047 7 131791003.641 7      -507.848 7        44.933               
G26  24354767.955 6 127985178.576 6      1003.547 6        41.602               
G31  25430714.184 6 133639309.880 6       178.029 6        41.199               
G28  25802848.809 6 135594972.616 6      -630.008 6        38.841               
G29  27812734.927 6 146156918.030 6       198.201 6        39.372               
> 2024 12 27 02 45 47.0000000  0  5                                             
G32  25079098.128 7 131791510.921 7      -507.260 7        44.667               
G26  24354576.899 7 127984166.711 7      1010.766 7        42.313               
G31  25430679.214 6 133639129.263 6       178.976 6        41.659               
G28  25802963.725 6 135595598.425 6      -627.176 6        38.459               
G29  27812697.009 6 146156722.187 6       192.198 6        39.193               
> 2024 12 27 02 45 49.0000000  0  5                                             
G32  25079286.235 7 131792526.833 7      -508.476 7        43.411               
G26  24354185.335 7 127982144.730 7      1009.789 7        42.214               
G31  25430611.669 7 133638768.436 7       182.271 7        42.019               
G28  25803204.403 6 135596850.185 6      -636.143 6        38.643               
G29  27812614.311 6 146156332.032 6       188.857 6        38.506               
> 2024 12 27 02 45 50.0000000  0  5                                             
G32  25079378.279 7 131793035.466 7      -504.547 7        42.626               
G26  24353993.172 7 127981134.625 7      1007.933 7        42.411               
G31  25430577.825 6 133638588.211 6       184.059 6        41.706               
G28  25803323.929 6 135597476.095 6      -623.839 6        38.633               
G29  27812574.123 6 146156137.698 6       189.708 6        37.722               
> 2024 12 27 02 45 51.0000000  0  5                                             
G32  25079477.434 7 131793544.548 7      -505.889 7        42.501               
G26  24353800.758 7 127980125.064 7      1004.389 7        42.957               
G31  25430542.659 6 133638408.124 6       182.184 6        41.809               
G28  25803441.346 6 135598102.050 6      -625.639 6        39.039               
G29  27812530.058 6 146155943.856 6       190.752 6        37.125               
> 2024 12 27 02 45 52.0000000  0  5                                             
G32  25079575.231 7 131794054.107 7      -511.170 7        42.410               
G26  24353610.667 7 127979116.115 7      1006.119 7        42.850               
G31  25430509.065 6 133638228.162 6       179.024 6        41.864               
G28  25803562.802 6 135598728.040 6      -619.169 6        38.581               
G29  27812495.589 6 146155750.533 6       188.237 6        36.535               
> 2024 12 27 02 45 59.0000000  0  5                                             
G32  25080262.277 7 131797633.839 7      -508.162 7        44.100               
G26  24352269.133 7 127972069.442 7      1004.732 7        42.127               
G31  25430263.366 6 133636971.961 6       176.860 6        41.537               
G28  25804394.944 6 135603110.917 6      -629.967 6        38.970               
G29  27812263.756 6 146154411.018 6       188.956 6        38.348               
> 2024 12 27 02 46 01.0000000  0  5                                             
G32  25080456.567 7 131798660.793 7      -507.657 7        44.425               
G26  24351878.784 7 127970061.333 7      1004.260 7        42.299               
G31  25430195.303 6 133636614.243 6       179.200 6        41.131               
G28  25804637.927 6 135604363.529 6      -637.972 6        39.216               
G29  27812196.676 6 146154032.791 6       191.644 6        38.417               
> 2024 12 27 02 46 02.0000000  0  5                                             
G32  25080549.629 7 131799175.001 7      -511.431 7        43.843               
G26  24351695.930 7 127969058.208 7      1001.705 7        42.043               
G31  25430162.084 6 133636435.621 6       172.590 6        40.226               
G28  25804751.503 6 135604989.891 6      -625.310 6        39.690               
G29  27812153.594 6 146153844.459 6       182.567 6        38.572               
> 2024 12 27 02 46 03.0000000  0  5                                             
G32  25080653.144 7 131799689.649 7      -515.442 7        44.088               
G26  24351508.716 7 127968055.595 7      1005.746 7        42.678               
G31  25430127.222 6 133636257.105 6       177.268 6        39.830               
G28  25804871.082 6 135605616.316 6      -619.028 6        39.460               
G29  27812116.998 6 146153656.615 6       185.369 6        38.198               
> 2024 12 27 02 46 04.0000000  0  5                                             
G32  25080748.690 7 131800204.794 7      -520.242 7        44.307               
G26  24351317.893 7 127967053.625 7      1001.580 7        42.643               
G31  25430089.608 6 133636078.767 6       181.358 6        40.047               
G28  25804991.430 6 135606242.813 6      -628.705 6        38.643               
G29  27812074.130 6 146153469.296 6       185.260 6        37.736               
> 2024 12 27 02 46 05.0000000  0  5                                             
G32  25080848.077 7 131800720.393 7      -519.803 7        43.910               
G26  24351126.605 7 127966052.207 7      1005.066 7        42.242               
G31  25430055.174 6 133635900.538 6       180.610 6        40.182               
G28  25805115.423 6 135606869.310 6      -624.441 6        39.374               
G29  27812034.318 6 146153282.500 6       181.178 6        37.557               
> 2024 12 27 02 46 06.0000000  0  5                                             
G32  25080947.447 7 131801236.439 7      -512.284 7        43.888               
G26  24350939.302 7 127965051.395 7      1002.474 7        42.510               
G31  25430022.277 6 133635722.452 6       180.128 6        40.147               
G28  25805235.039 6 135607495.850 6      -628.365 6        39.227               
G29  27812007.300 6 146153096.205 6       183.471 6        37.866               
> 2024 12 27 02 46 07.0000000  0  5                                             
G32  25081046.030 7 131801752.948 7      -520.277 7        43.814               
G26  24350745.191 7 127964051.145 7       999.867 7        42.516               
G31  25429986.968 6 133635544.495 6       177.200 6        40.088               
G28  25805349.204 6 135608122.408 6      -624.259 6        40.022               
G29  27811958.696 6 146152910.365 6       186.531 6        37.795               
> 2024 12 27 02 46 08.0000000  0  5                                             
G32  25081144.238 7 131802269.917 7      -517.961 7        44.028               
G26  24350554.117 7 127963051.450 7      1002.291 7        42.915               
G31  25429949.640 6 133635366.642 6       181.022 6        39.914               
G28  25805472.000 6 135608749.019 6      -624.198 6        39.792               
G29  27811924.888 6 146152725.032 6       184.633 6        37.988               
> 2024 12 27 02 46 09.0000000  0  5                                             
G32  25081244.091 7 131802787.348 7      -513.526 7        43.902               
G26  24350366.939 7 127962052.377 7      1002.459 7        42.627               
G31  25429908.862 6 133635188.937 6       175.054 6        39.759               
G28  25805590.328 6 135609375.655 6      -628.470 6        40.531               
G29  27811885.773 6 146152540.255 6       185.672 6        38.411               
> 2024 12 27 02 46 10.0000000  0  5                                             
G32  25081338.421 7 131803305.237 7      -516.022 7        43.889               
G26  24350171.363 6 127961053.819 6      1000.677 6        41.989               
G31  25429876.734 6 133635011.354 6       177.387 6        39.410               
G28  25805715.537 6 135610002.330 6      -627.745 6        40.078               
G29  27811865.652 6 146152355.915 6       174.073 6        38.025               
> 2024 12 27 02 46 11.0000000  0  5                                             
G32  25081436.093 7 131803823.585 7      -517.868 7        44.129               
G26  24349980.879 7 127960055.882 7      1001.693 7        42.068               
G31  25429842.586 6 133634833.885 6       175.407 6        39.238               
G28  25805832.203 6 135610629.033 6      -628.852 6        39.952               
G29  27811828.092 6 146152172.099 6       176.880 6        37.665               
> 2024 12 27 02 46 12.0000000  0  5                                             
G32  25081532.479 7 131804342.374 7      -519.273 7        44.119               
G26  24349792.057 7 127959058.487 7       998.181 7        42.627               
G31  25429812.459 6 133634656.558 6       177.344 6        39.258               
G28  25805959.538 6 135611255.766 6      -626.744 6        40.466               
G29  27811794.426 6 146151988.749 6       173.466 6        38.389               
> 2024 12 27 02 46 14.0000000  0  5                                             
G32  25081729.252 7 131805381.325 7      -518.824 7        43.103               
G26  24349414.288 7 127957065.460 7       993.733 7        42.524               
G31  25429744.110 6 133634302.262 6       177.569 6        38.960               
G28  25806199.930 6 135612509.322 6      -625.957 6        41.182               
G29  27811725.488 6 146151623.536 6       172.617 6        38.408               
> 2024 12 27 02 46 15.0000000  0  5                                             
G32  25081828.408 7 131805901.503 7      -516.570 7        43.223               
G26  24349223.536 7 127956069.789 7       995.167 7        42.757               
G31  25429713.483 6 133634125.302 6       174.699 6        38.746               
G28  25806318.491 6 135613136.154 6      -625.260 6        41.342               
G29  27811686.515 6 146151441.685 6       177.442 6        37.975               
> 2024 12 27 02 46 20.0000000  0  5                                             
G32  25082331.456 7 131808509.483 7      -524.519 7        44.175               
G26  24348283.286 7 127951100.350 7       996.487 7        42.642               
G31  25429544.031 6 133633242.658 6       176.195 6        39.805               
G28  25806918.551 6 135616271.063 6      -630.776 6        41.433               
G29  27811516.438 6 146150540.126 6       171.293 6        37.059               
> 2024 12 27 02 46 21.0000000  0  5                                             
G32  25082432.256 7 131809032.476 7      -523.669 7        44.450               
G26  24348090.998 7 127950108.215 7       989.469 7        43.546               
G31  25429511.723 6 133633066.506 6       181.086 6        39.917               
G28  25807039.810 6 135616898.163 6      -632.135 6        41.827               
G29  27811483.648 6 146150361.305 6       181.454 6        37.411               
> 2024 12 27 02 46 22.0000000  0  5                                             
G32  25082531.214 7 131809555.961 7      -527.879 7        44.555               
G26  24347903.087 7 127949116.666 7       990.948 7        43.251               
G31  25429480.024 6 133632890.522 6       173.132 6        39.977               
G28  25807158.996 6 135617525.314 6      -628.961 6        41.800               
G29  27811455.219 6 146150183.034 6       175.200 6        37.606               
> 2024 12 27 02 46 23.0000000  0  5                                             
G32  25082633.085 7 131810079.898 7      -521.778 7        43.823               
G26  24347721.020 7 127948125.717 7       991.800 7        43.424               
G31  25429444.965 6 133632714.663 6       176.814 6        39.794               
G28  25807277.986 6 135618152.496 6      -630.486 6        41.702               
G29  27811423.001 6 146150005.248 6       173.846 6        38.126               
> 2024 12 27 02 46 26.0000000  0  5                                             
G32  25082928.389 7 131811654.502 7      -524.658 7        44.527               
G26  24347154.143 7 127945156.303 7       988.042 7        44.267               
G31  25429349.169 6 133632187.891 6       169.053 6        40.746               
G28  25807635.652 7 135620034.315 7      -626.787 7        42.180               
G29  27811328.313 6 146149474.888 6       179.305 6        39.185               
> 2024 12 27 02 46 33.0000000  0  5                                             
G32  25083638.218 7 131815344.796 7      -530.820 7        43.819               
G26  24345834.730 7 127938248.042 7       982.307 7        42.749               
G31  25429117.997 6 133630963.370 6       175.593 6        40.530               
G28  25808475.264 6 135624426.588 6      -625.379 6        41.793               
G29  27811081.738 6 146148255.090 6       173.486 6        38.723               
> 2024 12 27 02 46 34.0000000  0  5                                             
G32  25083736.265 7 131815873.807 7      -528.307 7        44.667               
G26  24345647.838 7 127937263.446 7       985.513 7        42.679               
G31  25429083.474 6 133630788.926 6       179.968 6        40.814               
G28  25808593.450 6 135625054.186 6      -624.480 6        41.948               
G29  27811041.819 6 146148082.819 6       171.013 6        37.996               
> 2024 12 27 02 46 35.0000000  0  5                                             
G32  25083837.333 7 131816403.310 7      -531.008 7        44.855               
G26  24345464.841 7 127936279.420 7       988.923 7        42.547               
G31  25429055.634 6 133630614.630 6       174.632 6        40.693               
G28  25808713.905 6 135625681.830 6      -626.697 6        41.729               
G29  27811018.500 6 146147911.097 6       176.489 6        38.248               
> 2024 12 27 02 46 36.0000000  0  5                                             
G32  25083938.096 7 131816933.275 7      -528.466 7        44.632               
G26  24345268.407 7 127935296.003 7       978.543 7        43.137               
G31  25429014.947 6 133630440.460 6       171.691 6        40.392               
G28  25808835.057 6 135626309.504 6      -627.830 6        41.992               
G29  27810981.189 6 146147739.864 6       169.612 6        38.289               
> 2024 12 27 02 46 37.0000000  0  5                                             
G32  25084039.110 7 131817463.692 7      -530.253 7        44.659               
G26  24345089.127 7 127934313.135 7       981.759 7        43.217               
G31  25428986.767 6 133630266.422 6       172.113 6        40.253               
G28  25808953.689 6 135626937.195 6      -620.840 6        41.526               
G29  27810960.765 6 146147569.101 6       172.405 6        38.921               
> 2024 12 27 02 46 38.0000000  0  5                                             
G32  25084135.799 7 131817994.585 7      -530.841 7        43.934               
G26  24344900.591 7 127933330.866 7       974.131 7        43.098               
G31  25428958.927 6 133630092.515 6       170.909 6        40.284               
G28  25809074.019 6 135627564.969 6      -629.574 6        41.467               
G29  27810927.886 6 146147398.863 6       166.043 6        39.346               
> 2024 12 27 02 46 39.0000000  0  5                                             
G32  25084234.489 7 131818525.927 7      -526.127 7        43.443               
G26  24344710.125 7 127932349.176 7       978.127 7        43.306               
G31  25428920.795 6 133629918.727 6       172.732 6        40.354               
G28  25809193.813 6 135628192.743 6      -625.462 6        41.255               
G29  27810896.794 6 146147229.133 6       169.442 6        39.258               
> 2024 12 27 02 46 40.0000000  0  5                                             
G32  25084330.035 7 131819057.727 7      -530.117 7        43.236               
G26  24344527.754 7 127931368.054 7       984.417 7        42.909               
G31  25428887.773 6 133629745.059 6       176.049 6        40.166               
G28  25809307.746 6 135628820.546 6      -623.850 6        41.335               
G29  27810866.006 6 146147059.884 6       162.745 6        39.322               
> 2024 12 27 02 46 41.0000000  0  5                                             
G32  25084435.176 7 131819589.991 7      -530.637 7        42.886               
G26  24344341.558 7 127930387.492 7       982.705 7        43.135               
G31  25428854.179 6 133629571.533 6       177.396 6        40.443               
G28  25809425.253 6 135629448.407 6      -627.983 6        41.947               
G29  27810838.362 6 146146891.128 6       171.341 6        39.579               
> 2024 12 27 02 46 44.0000000  0  5                                             
G32  25084736.752 7 131821189.587 7      -534.062 7        42.492               
G26  24343780.668 7 127927449.363 7       981.778 7        43.003               
G31  25428752.058 6 133629051.722 6       169.183 6        40.873               
G28  25809782.008 7 135631332.183 7      -629.308 7        42.152               
G29  27810736.187 6 146146387.894 6       159.333 6        39.472               
> 2024 12 27 02 46 45.0000000  0  5                                             
G32  25084840.142 7 131821723.687 7      -533.455 7        42.554               
G26  24343598.690 7 127926471.169 7       977.092 7        42.867               
G31  25428720.751 6 133628878.704 6       180.535 6        40.666               
G28  25809904.822 6 135631960.189 6      -634.694 6        41.901               
G29  27810704.487 6 146146221.179 6       164.489 6        38.954               
> 2024 12 27 02 46 47.0000000  0  5                                             
G32  25085043.688 7 131822793.324 7      -534.932 7        43.340               
G26  24343217.579 7 127924516.437 7       979.371 7        42.885               
G31  25428655.994 6 133628533.078 6       172.659 6        40.464               
G28  25810145.321 6 135633216.293 6      -624.894 6        41.591               
G29  27810633.011 6 146145889.227 6       162.555 6        38.510               
> 2024 12 27 02 46 48.0000000  0  5                                             
G32  25085147.900 7 131823328.838 7      -534.174 7        43.790               
G26  24343034.350 7 127923539.986 7       968.246 7        42.563               
G31  25428622.489 6 133628360.472 6       175.212 6        40.499               
G28  25810262.881 6 135633844.428 6      -630.682 6        41.594               
G29  27810596.684 6 146145724.015 6       168.562 6        38.632               
> 2024 12 27 02 46 49.0000000  0  5                                             
G32  25085247.538 7 131823864.827 7      -534.696 7        43.593               
G26  24342849.817 7 127922564.068 7       978.848 7        42.388               
G31  25428589.950 6 133628187.969 6       174.154 6        40.889               
G28  25810379.959 6 135634472.563 6      -631.009 6        41.352               
G29  27810574.222 6 146145559.306 6       158.050 6        38.577               
> 2024 12 27 02 46 50.0000000  0  5                                             
G32  25085350.285 7 131824401.276 7      -535.452 7        43.437               
G26  24342660.316 7 127921588.751 7       970.947 7        42.557               
G31  25428556.767 6 133628015.623 6       172.172 6        40.628               
G28  25810503.523 6 135635100.752 6      -623.354 6        41.337               
G29  27810536.036 6 146145395.090 6       164.296 6        39.054               
> 2024 12 27 02 46 51.0000000  0  5                                             
G32  25085453.014 7 131824938.156 7      -536.686 7        43.404               
G26  24342479.356 7 127920613.994 7       975.374 7        42.578               
G31  25428531.643 6 133627843.389 6       169.651 6        40.679               
G28  25810621.137 6 135635728.965 6      -636.282 6        41.868               
G29  27810505.587 6 146145231.367 6       159.886 6        39.257               
> 2024 12 27 02 46 52.0000000  0  5                                             
G32  25085556.547 7 131825475.513 7      -536.877 7        43.146               
G26  24342295.305 7 127919639.791 7       973.517 7        42.677               
G31  25428497.656 6 133627671.277 6       172.386 6        40.485               
G28  25810740.681 6 135636357.193 6      -628.888 6        41.369               
G29  27810477.801 6 146145068.109 6       169.841 6        39.654               
> 2024 12 27 02 46 53.0000000  0  5                                             
G32  25085660.831 7 131826013.299 7      -537.987 7        43.338               
G26  24342109.914 7 127918666.181 7       973.329 7        42.935               
G31  25428462.562 6 133627499.264 6       174.274 6        40.595               
G28  25810855.561 6 135636985.431 6      -626.528 6        41.700               
G29  27810447.191 6 146144905.379 6       162.822 6        39.700               
> 2024 12 27 02 46 54.0000000  0  5                                             
G32  25085758.860 7 131826551.557 7      -531.769 7        43.111               
G26  24341929.919 7 127917693.149 7       967.925 7        42.941               
G31  25428427.449 6 133627327.391 6       179.326 6        40.935               
G28  25810976.427 6 135637613.743 6      -631.212 6        41.532               
G29  27810417.475 6 146144743.137 6       154.862 6        40.145               
> 2024 12 27 02 46 55.0000000  0  5                                             
G32  25085863.590 7 131827090.313 7      -536.666 7        42.926               
G26  24341739.721 7 127916720.705 7       974.836 7        43.100               
G31  25428396.643 6 133627155.682 6       173.269 6        40.998               
G28  25811099.348 6 135638242.097 6      -626.002 6        41.639               
G29  27810386.866 6 146144581.401 6       160.792 6        40.059               
> 2024 12 27 02 46 56.0000000  0  5                                             
G32  25085968.303 7 131827629.513 7      -539.521 7        43.092               
G26  24341554.277 7 127915748.842 7       974.307 7        42.819               
G31  25428365.479 6 133626984.090 6       169.147 6        41.722               
G28  25811216.837 6 135638870.464 6      -632.846 6        41.372               
G29  27810358.847 6 146144420.183 6       158.570 6        40.164               
> 2024 12 27 02 46 57.0000000  0  5                                             
G32  25086070.943 7 131828169.183 7      -542.635 7        43.769               
G26  24341373.174 7 127914777.530 7       972.853 7        43.345               
G31  25428331.474 6 133626812.597 6       175.010 6        41.548               
G28  25811337.971 6 135639498.897 6      -628.514 6        41.560               
G29  27810330.310 6 146144259.449 6       162.099 6        40.280               
> 2024 12 27 02 46 58.0000000  0  5                                             
G32  25086173.922 7 131828709.327 7      -537.364 7        44.324               
G26  24341187.747 7 127913806.845 7       976.352 7        43.381               
G31  25428301.472 6 133626641.278 6       172.928 6        41.406               
G28  25811458.051 6 135640127.361 6      -634.136 6        41.359               
G29  27810292.178 6 146144099.258 6       158.959 6        39.784               
> 2024 12 27 02 46 59.0000000  0  5                                             
G32  25086273.238 7 131829249.949 7      -541.851 7        44.309               
G26  24341003.250 7 127912836.726 7       968.425 7        43.287               
G31  25428273.025 6 133626470.064 6       170.695 6        41.328               
G28  25811569.268 6 135640755.849 6      -629.807 6        40.853               
G29  27810259.281 6 146143939.528 6       162.176 6        39.201               
> 2024 12 27 02 47 00.0000000  0  5                                             
G32  25086377.093 7 131829791.002 7      -533.849 7        43.447               
G26  24340822.880 7 127911867.176 7       966.070 7        43.545               
G31  25428240.789 6 133626298.995 6       173.241 6        41.417               
G28  25811692.743 6 135641384.376 6      -622.209 6        41.273               
G29  27810223.364 6 146143780.316 6       164.359 6        39.228               
> 2024 12 27 02 47 01.0000000  0  5                                             
G32  25086483.199 7 131830332.509 7      -536.432 7        43.476               
G26  24340635.648 7 127910898.207 7       965.347 7        43.725               
G31  25428208.053 6 133626128.038 6       171.298 6        41.982               
G28  25811814.967 6 135642012.931 6      -629.813 6        41.111               
G29  27810194.774 6 146143621.624 6       153.139 6        39.106               
> 2024 12 27 02 47 02.0000000  0  5                                             
G32  25086584.409 7 131830874.497 7      -541.127 7        43.545               
G26  24340453.867 7 127909929.795 7       969.108 7        43.610               
G31  25428176.568 7 133625957.197 7       171.501 7        42.335               
G28  25811929.239 6 135642641.523 6      -628.232 6        40.624               
G29  27810169.453 6 146143463.403 6       150.948 6        39.444               
> 2024 12 27 02 47 03.0000000  0  5                                             
G32  25086683.225 7 131831416.956 7      -543.333 7        43.496               
G26  24340271.245 7 127908961.982 7       969.297 7        43.341               
G31  25428143.903 7 133625786.516 7       165.372 7        42.434               
G28  25812053.911 6 135643270.161 6      -629.015 6        40.515               
G29  27810143.168 6 146143305.705 6       158.446 6        39.054               
> 2024 12 27 02 47 04.0000000  0  5                                             
G32  25086786.132 7 131831959.877 7      -542.368 7        43.040               
G26  24340085.032 7 127907994.770 7       967.173 7        44.185               
G31  25428109.488 7 133625615.957 7       173.766 7        42.932               
G28  25812170.632 6 135643898.837 6      -630.675 6        40.740               
G29  27810115.310 6 146143148.529 6       158.409 6        39.550               
> 2024 12 27 02 47 05.0000000  0  5                                             
G32  25086887.611 7 131832503.271 7      -541.273 7        42.940               
G26  24339901.321 7 127907028.122 7       964.013 7        44.388               
G31  25428075.894 7 133625445.526 7       166.790 7        42.914               
G28  25812289.675 6 135644527.558 6      -626.218 6        40.350               
G29  27810085.165 6 146142991.852 6       161.808 6        39.388               
> 2024 12 27 02 47 06.0000000  0  5                                             
G32  25086991.966 7 131833047.136 7      -539.013 7        42.648               
G26  24339718.145 7 127906062.087 7       966.444 7        43.845               
G31  25428043.962 7 133625275.243 7       175.565 7        42.913               
G28  25812412.435 6 135645156.322 6      -625.713 6        41.111               
G29  27810060.238 6 146142835.670 6       156.268 6        39.674               
> 2024 12 27 02 47 07.0000000  0  5                                             
G32  25087096.213 7 131833591.475 7      -541.655 7        42.690               
G26  24339535.917 7 127905096.593 7       968.947 7        43.752               
G31  25428011.226 7 133625105.083 7       167.902 7        42.479               
G28  25812532.551 6 135645785.129 6      -630.233 6        41.046               
G29  27810031.308 6 146142680.026 6       154.338 6        39.475               
> 2024 12 27 02 47 08.0000000  0  5                                             
G32  25087201.641 7 131834136.275 7      -546.631 7        43.191               
G26  24339348.489 7 127904131.712 7       964.067 7        43.579               
G31  25427977.704 7 133624935.049 7       169.530 7        42.561               
G28  25812659.207 6 135646413.986 6      -626.448 6        40.588               
G29  27810003.504 6 146142524.847 6       160.720 6        40.075               
> 2024 12 27 02 47 09.0000000  0  5                                             
G32  25087309.105 7 131834681.538 7      -550.802 7        43.745               
G26  24339170.692 7 127903167.379 7       967.209 7        43.882               
G31  25427939.535 7 133624765.150 7       175.647 7        42.682               
G28  25812773.086 6 135647042.858 6      -630.048 6        41.073               
G29  27809971.482 6 146142370.182 6       153.018 6        40.281               
> 2024 12 27 02 47 10.0000000  0  5                                             
G32  25087414.782 7 131835227.255 7      -546.791 7        43.992               
G26  24338983.621 7 127902203.647 7       963.022 7        43.245               
G31  25427908.622 7 133624595.381 7       172.010 7        42.142               
G28  25812896.704 6 135647671.760 6      -626.234 6        41.541               
G29  27809941.123 6 146142216.012 6       156.080 6        40.644               
> 2024 12 27 02 47 11.0000000  0  5                                             
G32  25087519.227 7 131835773.461 7      -546.340 7        44.344               
G26  24338798.587 7 127901240.494 7       957.894 7        43.739               
G31  25427873.670 7 133624425.741 7       167.325 7        42.413               
G28  25813013.728 6 135648300.715 6      -627.420 6        41.184               
G29  27809909.459 6 146142062.361 6       154.503 6        40.398               
> 2024 12 27 02 47 12.0000000  0  5                                             
G32  25087626.012 7 131836320.115 7      -546.018 7        44.779               
G26  24338614.733 7 127900277.921 7       960.839 7        43.458               
G31  25427847.653 7 133624256.230 7       169.107 7        42.051               
G28  25813132.432 6 135648929.701 6      -623.569 6        40.893               
G29  27809882.352 6 146141909.202 6       151.194 6        40.194               
> 2024 12 27 02 47 13.0000000  0  5                                             
G32  25087727.115 7 131836867.243 7      -545.047 7        44.481               
G26  24338430.039 7 127899315.927 7       962.647 7        43.135               
G31  25427810.396 6 133624086.832 6       170.850 6        41.957               
G28  25813252.083 6 135649558.736 6      -628.775 6        40.929               
G29  27809845.506 6 146141756.564 6       148.409 6        40.131               
> 2024 12 27 02 47 14.0000000  0  5                                             
G32  25087833.078 7 131837414.825 7      -547.624 7        44.794               
G26  24338245.756 7 127898354.499 7       962.999 7        43.089               
G31  25427780.144 6 133623917.588 6       159.650 6        41.639               
G28  25813371.341 6 135650187.798 6      -630.674 6        41.383               
G29  27809814.521 6 146141604.417 6       145.161 6        39.646               
> 2024 12 27 02 47 15.0000000  0  5                                             
G32  25087936.308 7 131837962.870 7      -549.104 7        44.825               
G26  24338061.294 7 127897393.643 7       959.253 7        42.674               
G31  25427750.016 6 133623748.457 6       160.739 6        41.820               
G28  25813492.886 6 135650816.892 6      -632.768 6        41.369               
G29  27809780.105 6 146141452.772 6       154.747 6        38.613               
> 2024 12 27 02 47 16.0000000  0  5                                             
G32  25088036.160 7 131838511.362 7      -551.637 7        45.193               
G26  24337878.619 6 127896433.347 6       959.687 6        41.937               
G31  25427717.477 6 133623579.441 6       165.430 6        41.999               
G28  25813613.144 6 135651446.013 6      -625.453 6        41.055               
G29  27809747.619 6 146141301.632 6       151.142 6        38.542               
> 2024 12 27 02 47 17.0000000  0  5                                             
G32  25088141.641 7 131839060.337 7      -552.193 7        44.898               
G26  24337699.911 7 127895473.652 7       957.010 7        42.318               
G31  25427681.096 7 133623410.535 7       173.430 7        42.355               
G28  25813729.543 6 135652075.169 6      -625.860 6        40.308               
G29  27809719.618 6 146141150.986 6       141.190 6        38.598               
> 2024 12 27 02 47 18.0000000  0  5                                             
G32  25088243.458 7 131839609.774 7      -546.922 7        44.480               
G26  24337512.375 7 127894514.576 7       958.624 7        42.045               
G31  25427651.737 6 133623241.804 6       166.712 6        41.816               
G28  25813850.802 6 135652704.357 6      -627.623 6        40.962               
G29  27809685.953 6 146141000.863 6       151.535 6        38.062               
> 2024 12 27 02 47 19.0000000  0  5                                             
G32  25088346.777 7 131840159.699 7      -544.762 7        44.778               
G26  24337327.270 6 127893556.055 6       958.013 6        41.653               
G31  25427619.448 6 133623073.205 6       172.559 6        41.736               
G28  25813970.507 6 135653333.640 6      -626.131 6        41.020               
G29  27809667.351 6 146140851.279 6       143.127 6        38.018               
> 2024 12 27 02 47 20.0000000  0  5                                             
G32  25088452.437 7 131840710.067 7      -554.528 7        43.711               
G26  24337148.776 6 127892598.073 6       960.044 6        41.390               
G31  25427584.103 6 133622904.726 6       168.366 6        41.737               
G28  25814090.498 6 135653962.918 6      -628.048 6        41.162               
G29  27809638.725 6 146140702.127 6       150.921 6        38.375               
> 2024 12 27 02 47 21.0000000  0  5                                             
G32  25088559.758 7 131841260.872 7      -553.100 7        43.833               
G26  24336963.153 6 127891640.711 6       957.053 6        40.911               
G31  25427546.042 6 133622736.356 6       171.728 6        40.992               
G28  25814214.241 6 135654592.210 6      -624.347 6        41.213               
G29  27809613.834 6 146140553.524 6       141.152 6        38.855               
> 2024 12 27 02 47 22.0000000  0  5                                             
G32  25088667.991 7 131841812.157 7      -550.406 7        43.959               
G26  24336782.318 6 127890683.910 6       959.223 6        40.813               
G31  25427520.024 6 133622568.116 6       173.938 6        40.524               
G28  25814323.259 6 135655221.563 6      -627.936 6        40.667               
G29  27809592.802 6 146140405.388 6       145.570 6        39.311               
> 2024 12 27 02 47 23.0000000  0  5                                             
G32  25088774.508 7 131842363.897 7      -548.891 7        44.951               
G26  24336596.659 6 127889727.651 6       950.807 6        40.780               
G31  25427477.728 6 133622399.993 6       172.505 6        40.674               
G28  25814445.662 6 135655850.909 6      -631.646 6        41.138               
G29  27809566.016 6 146140257.761 6       143.141 6        39.714               
> 2024 12 27 02 47 24.0000000  0  5                                             
G32  25088883.956 7 131842916.115 7      -555.714 7        44.698               
G26  24336420.864 6 127888772.004 6       959.832 6        41.330               
G31  25427451.800 6 133622232.018 6       169.849 6        40.431               
G28  25814575.105 6 135656480.330 6      -630.820 6        40.694               
G29  27809545.002 6 146140110.620 6       156.739 6        39.729               
> 2024 12 27 02 47 25.0000000  0  5                                             
G32  25088989.490 7 131843468.758 7      -550.198 7        45.401               
G26  24336235.383 6 127887816.915 6       951.713 6        40.885               
G31  25427419.904 6 133622064.122 6       173.233 6        40.463               
G28  25814692.666 6 135657109.741 6      -628.047 6        41.363               
G29  27809513.928 6 146139963.990 6       150.690 6        40.223               
> 2024 12 27 02 47 27.0000000  0  5                                             
G32  25089200.237 7 131844575.506 7      -554.662 7        44.875               
G26  24335872.374 6 127885908.487 6       950.326 6        40.555               
G31  25427351.680 6 133621728.800 6       165.083 6        40.854               
G28  25814932.432 6 135658368.751 6      -638.287 6        41.387               
G29  27809460.911 6 146139672.233 6       151.038 6        40.377               
> 2024 12 27 02 47 28.0000000  0  5                                             
G32  25089300.804 7 131845129.607 7      -560.132 7        44.742               
G26  24335686.000 6 127884955.168 6       952.075 6        39.929               
G31  25427318.426 6 133621561.351 6       163.775 6        39.703               
G28  25815053.584 6 135658998.302 6      -629.182 6        41.647               
G29  27809434.250 6 146139527.143 6       147.420 6        40.327               
> 2024 12 27 02 47 29.0000000  0  5                                             
G32  25089405.124 7 131845684.185 7      -553.529 7        44.422               
G26  24335498.536 6 127884002.454 6       964.283 6        39.788               
G31  25427286.351 6 133621394.051 6       164.536 6        39.967               
G28  25815172.127 6 135659627.939 6      -628.569 6        41.741               
G29  27809400.156 6 146139382.590 6       144.835 6        40.116               
> 2024 12 27 02 47 30.0000000  0  5                                             
G32  25089509.425 7 131846239.223 7      -556.702 7        43.745               
G26  24335324.242 6 127883050.300 6       948.988 6        39.732               
G31  25427263.121 6 133621226.855 6       169.827 6        39.486               
G28  25815297.461 7 135660257.594 7      -624.911 7        42.288               
G29  27809381.644 6 146139238.507 6       146.769 6        40.275               
> 2024 12 27 02 47 31.0000000  0  5                                             
G32  25089614.584 7 131846794.735 7      -558.967 7        43.877               
G26  24335143.586 6 127882098.724 6       961.344 6        39.667               
G31  25427227.794 6 133621059.792 6       168.911 6        40.415               
G28  25815410.429 7 135660887.294 7      -630.810 7        42.214               
G29  27809349.694 6 146139094.943 6       147.704 6        40.011               
> 2024 12 27 02 47 33.0000000  0  5                                             
G32  25089824.849 7 131847907.155 7      -558.192 7        43.576               
G26  24334779.040 6 127880197.393 6       947.709 6        40.107               
G31  25427167.129 6 133620726.068 6       168.284 6        40.902               
G28  25815653.751 6 135662146.822 6      -631.725 6        41.955               
G29  27809290.619 6 146138809.352 6       136.767 6        39.445               
> 2024 12 27 02 47 34.0000000  0  5                                             
G32  25089931.992 7 131848464.062 7      -556.515 7        43.256               
G26  24334600.761 6 127879247.579 6       950.049 6        40.219               
G31  25427130.354 6 133620559.426 6       163.600 6        41.015               
G28  25815774.849 7 135662776.646 7      -627.801 7        42.491               
G29  27809252.754 6 146138667.345 6       129.615 6        38.892               
> 2024 12 27 02 47 36.0000000  0  5                                             
G32  25090142.685 7 131849579.357 7      -554.796 7        43.384               
G26  24334242.934 6 127877349.728 6       953.720 6        40.174               
G31  25427068.349 6 133620226.554 6       167.384 6        40.914               
G28  25816011.668 7 135664036.434 7      -629.623 7        42.181               
G29  27809196.360 6 146138384.854 6       138.295 6        38.368               
> 2024 12 27 02 47 37.0000000  0  5                                             
G32  25090251.579 7 131850137.717 7      -560.024 7        43.621               
G26  24334060.723 6 127876401.696 6       950.737 6        40.177               
G31  25427038.847 6 133620060.307 6       165.096 6        40.888               
G28  25816131.998 7 135664666.402 7      -624.517 7        42.777               
G29  27809164.088 6 146138244.357 6       140.511 6        37.976               
> 2024 12 27 02 47 38.0000000  0  5                                             
G32  25090357.292 7 131850696.525 7      -558.308 7        43.647               
G26  24333877.602 6 127875454.286 6       940.369 6        39.740               
G31  25427008.649 6 133619894.203 6       167.868 6        40.461               
G28  25816253.811 7 135665296.410 7      -630.240 7        43.011               
G29  27809138.982 6 146138104.398 6       144.484 6        38.327               
> 2024 12 27 02 47 39.0000000  0  5                                             
G32  25090468.920 7 131851255.797 7      -560.747 7        43.756               
G26  24333690.352 6 127874507.367 6       942.838 6        39.847               
G31  25426977.807 6 133619728.204 6       166.643 6        40.567               
G28  25816373.462 7 135665926.428 7      -628.216 7        42.843               
G29  27809118.093 6 146137964.904 6       139.123 6        38.879               
> 2024 12 27 02 47 40.0000000  0  5                                             
G32  25090570.523 7 131851815.541 7      -552.824 7        42.770               
G26  24333515.575 6 127873561.089 6       945.601 6        39.695               
G31  25426947.662 6 133619562.368 6       165.371 6        40.884               
G28  25816493.434 7 135666556.517 7      -629.258 7        42.461               
G29  27809087.305 6 146137825.941 6       128.499 6        39.228               
> 2024 12 27 02 47 41.0000000  0  5                                             
G32  25090674.467 7 131852375.760 7      -557.440 7        43.189               
G26  24333334.633 6 127872615.338 6       948.750 6        39.981               
G31  25426914.943 6 133619396.619 6       171.788 6        40.899               
G28  25816610.119 7 135667186.601 7      -627.505 7        42.284               
G29  27809071.277 6 146137687.477 6       139.992 6        39.379               
> 2024 12 27 02 47 42.0000000  0  5                                             
G32  25090779.287 7 131852936.393 7      -555.963 7        43.154               
G26  24333155.604 6 127871670.182 6       948.983 6        39.849               
G31  25426886.728 6 133619230.995 6       165.216 6        41.255               
G28  25816735.524 7 135667816.726 7      -630.045 7        43.251               
G29  27809049.208 6 146137549.503 6       135.045 6        39.230               
> 2024 12 27 02 47 43.0000000  0  5                                             
G32  25090886.144 7 131853497.486 7      -560.313 7        43.076               
G26  24332973.018 6 127870725.583 6       945.680 6        39.748               
G31  25426857.584 6 133619065.478 6       161.855 6        41.711               
G28  25816852.977 7 135668446.859 7      -631.038 7        42.900               
G29  27809019.331 6 146137411.990 6       136.853 6        39.558               
> 2024 12 27 02 47 44.0000000  0  5                                             
G32  25090993.019 7 131854059.028 7      -558.298 7        43.312               
G26  24332796.579 6 127869781.546 6       945.446 6        39.486               
G31  25426821.721 6 133618900.055 6       165.427 6        41.413               
G28  25816972.449 7 135669077.014 7      -635.142 7        42.412               
G29  27808999.801 6 146137274.998 6       141.264 6        39.300               
> 2024 12 27 02 47 45.0000000  0  5                                             
G32  25091101.215 7 131854621.062 7      -561.418 7        42.827               
G26  24332616.048 6 127868838.097 6       934.074 6        39.750               
G31  25426793.309 6 133618734.785 6       163.744 6        41.549               
G28  25817091.796 7 135669707.223 7      -626.773 7        42.938               
G29  27808975.659 6 146137138.515 6       132.323 6        39.898               
> 2024 12 27 02 47 46.0000000  0  5                                             
G32  25091211.878 7 131855183.560 7      -560.156 7        43.574               
G26  24332438.824 6 127867895.266 6       941.930 6        39.514               
G31  25426760.216 7 133618569.654 7       164.967 7        42.005               
G28  25817210.697 7 135670337.457 7      -625.882 7        42.734               
G29  27808943.585 6 146137002.525 6       130.948 6        40.071               
> 2024 12 27 02 47 47.0000000  0  5                                             
G32  25091321.451 7 131855746.524 7      -559.741 7        43.766               
G26  24332261.992 6 127866952.973 6       940.286 6        39.813               
G31  25426730.571 7 133618404.619 7       170.256 7        42.462               
G28  25817332.153 7 135670967.744 7      -629.190 7        42.478               
G29  27808930.451 6 146136867.050 6       135.053 6        40.101               
> 2024 12 27 02 47 48.0000000  0  5                                             
G32  25091428.522 7 131856309.953 7      -563.545 7        44.289               
G26  24332075.868 6 127866011.252 6       934.721 6        39.610               
G31  25426700.479 7 133618239.757 7       163.297 7        42.394               
G28  25817451.071 6 135671598.051 6      -630.013 6        41.922               
G29  27808896.196 6 146136732.089 6       136.815 6        39.371               
> 2024 12 27 02 47 49.0000000  0  5                                             
G32  25091538.578 7 131856873.846 7      -564.572 7        44.625               
G26  24331899.876 6 127865070.151 6       941.004 6        40.117               
G31  25426667.994 7 133618074.994 7       162.426 7        42.360               
G28  25817570.222 7 135672228.408 7      -627.727 7        42.114               
G29  27808866.247 6 146136597.624 6       132.524 6        39.197               
> 2024 12 27 02 47 50.0000000  0  5                                             
G32  25091647.043 7 131857438.240 7      -568.419 7        44.526               
G26  24331720.256 6 127864129.616 6       940.912 6        40.522               
G31  25426637.116 7 133617910.387 7       166.870 7        42.393               
G28  25817688.372 7 135672858.818 7      -629.252 7        42.386               
G29  27808840.427 6 146136463.682 6       135.375 6        39.035               
> 2024 12 27 02 47 51.0000000  0  5                                             
G32  25091755.436 7 131858003.069 7      -563.107 7        44.373               
G26  24331544.997 6 127863189.660 6       935.273 6        40.021               
G31  25426605.380 7 133617745.892 7       168.365 7        42.339               
G28  25817804.896 6 135673489.246 6      -632.651 6        41.717               
G29  27808811.872 6 146136330.227 6       131.901 6        39.003               
> 2024 12 27 02 47 52.0000000  0  5                                             
G32  25091861.560 7 131858568.344 7      -566.407 7        44.108               
G26  24331361.196 6 127862250.242 6       938.647 6        40.027               
G31  25426576.486 6 133617581.487 6       163.174 6        41.889               
G28  25817925.315 6 135674119.679 6      -632.192 6        41.655               
G29  27808786.498 6 146136197.270 6       132.181 6        39.096               
> 2024 12 27 02 47 53.0000000  0  5                                             
G32  25091963.592 7 131859134.081 7      -564.919 7        44.129               
G26  24331187.224 6 127861311.422 6       939.063 6        40.082               
G31  25426546.395 7 133617417.217 7       166.958 7        42.449               
G28  25818044.108 6 135674750.154 6      -630.581 6        41.739               
G29  27808761.642 6 146136064.793 6       137.027 6        38.688               
> 2024 12 27 02 47 54.0000000  0  5                                             
G32  25092073.076 7 131859700.271 7      -565.543 7        43.635               
G26  24331008.694 6 127860373.164 6       943.058 6        40.078               
G31  25426511.318 7 133617253.074 7       163.201 7        42.155               
G28  25818163.491 6 135675380.640 6      -628.296 6        41.652               
G29  27808733.516 6 146135932.855 6       128.537 6        39.557               
> 2024 12 27 02 47 55.0000000  0  5                                             
G32  25092176.323 7 131860266.910 7      -563.675 7        43.210               
G26  24330831.273 6 127859435.450 6       939.559 6        40.173               
G31  25426481.316 7 133617089.031 7       161.176 7        42.399               
G28  25818284.840 6 135676011.159 6      -630.486 6        41.479               
G29  27808705.694 6 146135801.359 6       126.182 6        39.241               
> 2024 12 27 02 47 56.0000000  0  5                                             
G32  25092282.519 7 131860834.018 7      -559.084 7        43.196               
G26  24330649.098 6 127858498.333 6       937.237 6        40.073               
G31  25426451.564 7 133616925.139 7       163.168 7        42.344               
G28  25818400.524 6 135676641.707 6      -629.986 6        41.106               
G29  27808693.150 6 146135670.386 6       130.392 6        38.924               
> 2024 12 27 02 47 57.0000000  0  5                                             
G32  25092385.748 7 131861401.607 7      -570.719 7        43.034               
G26  24330476.179 6 127857561.818 6       941.575 6        39.938               
G31  25426419.418 7 133616761.386 7       165.292 7        42.265               
G28  25818521.694 6 135677272.324 6      -636.300 6        41.375               
G29  27808658.788 6 146135539.955 6       126.685 6        39.446               
> 2024 12 27 02 47 58.0000000  0  5                                             
G32  25092497.072 7 131861969.715 7      -572.831 7        43.185               
G26  24330295.792 6 127856625.952 6       932.206 6        40.604               
G31  25426388.468 7 133616597.824 7       166.376 7        42.537               
G28  25818636.931 6 135677903.007 6      -628.240 6        40.667               
G29  27808637.917 6 146135410.058 6       133.475 6        39.647               
> 2024 12 27 02 47 59.0000000  0  5                                             
G32  25092609.272 7 131862538.319 7      -570.816 7        43.127               
G26  24330119.031 6 127855690.678 6       931.540 6        39.734               
G31  25426354.410 7 133616434.403 7       164.586 7        42.368               
G28  25818761.264 6 135678533.789 6      -633.087 6        40.431               
G29  27808617.278 6 146135280.715 6       133.570 6        39.113               
> 2024 12 27 02 48 00.0000000  0  5                                             
G32  25092719.255 7 131863107.394 7      -569.300 7        43.967               
G26  24329939.233 6 127854755.984 6       933.838 6        40.505               
G31  25426331.288 7 133616271.133 7       161.512 7        42.058               
G28  25818878.967 6 135679164.587 6      -635.423 6        40.339               
G29  27808586.186 6 146135151.874 6       130.635 6        39.292               
> 2024 12 27 02 48 01.0000000  0  5                                             
G32  25092829.507 7 131863676.936 7      -569.946 7        43.933               
G26  24329764.992 6 127853821.853 6       930.556 6        40.219               
G31  25426297.801 6 133616107.972 6       160.562 6        41.369               
G28  25819000.637 6 135679795.397 6      -633.893 6        40.537               
G29  27808556.720 6 146135023.540 6       126.722 6        39.240               
> 2024 12 27 02 48 02.0000000  0  5                                             
G32  25092943.923 7 131864246.950 7      -571.899 7        43.804               
G26  24329582.961 6 127852888.328 6       932.135 6        40.895               
G31  25426264.815 6 133615944.944 6       161.843 6        41.935               
G28  25819115.714 6 135680426.286 6      -631.490 6        39.964               
G29  27808535.152 6 146134895.698 6       122.360 6        39.388               
> 2024 12 27 02 48 03.0000000  0  5                                             
G32  25093054.192 7 131864817.440 7      -570.031 7        44.561               
G26  24329405.789 6 127851955.391 6       938.402 6        40.403               
G31  25426231.239 6 133615782.061 6       166.786 6        41.638               
G28  25819237.544 6 135681057.205 6      -629.041 6        40.042               
G29  27808507.920 6 146134768.404 6       128.532 6        39.318               
> 2024 12 27 02 48 10.0000000  0  5                                             
G32  25093806.568 7 131868824.116 7      -572.286 7        43.281               
G26  24328163.964 6 127845441.129 6       935.016 6        39.902               
G31  25426013.076 6 133614645.528 6       166.605 6        40.793               
G28  25820074.905 6 135685474.783 6      -632.109 6        39.505               
G29  27808357.641 6 146133891.467 6       117.681 6        40.162               
> 2024 12 27 02 48 11.0000000  0  5                                             
G32  25093913.049 7 131869398.354 7      -571.959 7        43.057               
G26  24327985.917 6 127844512.808 6       930.729 6        39.667               
G31  25425984.950 6 133614483.678 6       159.507 6        40.616               
G28  25820191.196 6 135686106.007 6      -628.549 6        39.359               
G29  27808333.876 6 146133768.191 6       120.264 6        40.191               
> 2024 12 27 02 48 12.0000000  0  5                                             
G32  25094022.461 7 131869973.040 7      -574.008 7        42.417               
G26  24327810.389 6 127843585.078 6       926.758 6        39.822               
G31  25425956.717 6 133614321.936 6       162.210 6        41.454               
G28  25820318.888 6 135686737.242 6      -631.204 6        39.171               
G29  27808311.611 6 146133645.433 6       123.908 6        40.261               
> 2024 12 27 02 48 13.0000000  0  5                                             
G32  25094128.978 7 131870548.190 7      -573.931 7        42.808               
G26  24327628.804 6 127842657.911 6       926.365 6        40.137               
G31  25425926.072 6 133614160.312 6       164.196 6        40.951               
G28  25820435.484 6 135687368.531 6      -635.084 6        39.589               
G29  27808285.897 6 146133523.161 6       115.794 6        40.413               
> 2024 12 27 02 48 14.0000000  0  5                                             
G32  25094239.659 7 131871123.845 7      -577.714 7        43.183               
G26  24327458.226 6 127841731.353 6       932.860 6        39.869               
G31  25425893.925 6 133613998.835 6       160.930 6        40.851               
G28  25820561.907 6 135687999.850 6      -636.952 6        39.288               
G29  27808267.242 6 146133401.396 6       127.874 6        40.361               
> 2024 12 27 02 48 15.0000000  0  5                                             
G32  25094350.590 7 131871699.932 7      -578.027 7        42.591               
G26  24327279.536 6 127840805.356 6       922.145 6        39.349               
G31  25425859.242 6 133613837.492 6       158.504 6        40.783               
G28  25820679.128 6 135688631.212 6      -631.157 6        39.516               
G29  27808245.245 6 146133280.150 6       119.555 6        40.416               
> 2024 12 27 02 48 16.0000000  0  5                                             
G32  25094460.342 7 131872276.497 7      -571.539 7        42.954               
G26  24327107.565 6 127839879.961 6       919.840 6        39.818               
G31  25425823.396 6 133613676.264 6       162.957 6        40.672               
G28  25820799.101 6 135689262.614 6      -631.604 6        39.112               
G29  27808216.315 6 146133159.408 6       121.624 6        39.627               
> 2024 12 27 02 48 17.0000000  0  5                                             
G32  25094571.112 7 131872853.546 7      -573.652 7        42.617               
G26  24326923.746 6 127838955.109 6       921.163 6        39.696               
G31  25425801.078 6 133613515.174 6       160.312 6        41.183               
G28  25820917.447 6 135689894.038 6      -629.176 6        39.599               
G29  27808188.475 6 146133039.201 6       124.510 6        40.066               
> 2024 12 27 02 48 18.0000000  0  5                                             
G32  25094680.381 7 131873431.090 7      -579.911 7        42.702               
G26  24326746.289 6 127838030.896 6       920.908 6        39.710               
G31  25425772.898 6 133613354.237 6       158.341 6        41.587               
G28  25821040.654 6 135690525.528 6      -633.823 6        40.268               
G29  27808173.269 6 146132919.492 6       117.645 6        38.869               
> 2024 12 27 02 48 19.0000000  0  5                                             
G32  25094794.492 7 131874009.073 7      -577.746 7        42.535               
G26  24326577.212 6 127837107.262 6       924.573 6        39.655               
G31  25425741.914 6 133613193.412 6       162.835 6        41.686               
G28  25821160.644 6 135691157.057 6      -629.136 6        40.354               
G29  27808136.012 6 146132800.336 6       118.273 6        38.198               
