     3.02           OBSERVATION DATA    G                   RINEX VERSION / TYPE
G = GPS  R = GLONASS  E = GALILEO  S = GEO  M = MIXED       COMMENT             
GNSS-SDR            tagsys-g1           20241227 030904 UTC PGM / RUN BY / DATE 
GPS OBSERVATION DATA FILE GENERATED BY GNSS-SDR             COMMENT             
GNSS-SDR VERSION 0.0.19.git-next-dc55847ae                  COMMENT             
See https://gnss-sdr.org                                    COMMENT             
DEFAULT MARKER NAME                                         MARKER NAME         
tagsys-g1           CTTC                                    OBSERVER / AGENCY   
GNSS-SDR            Software Receiver   0.0.19.gi           REC # / TYPE / VERS 
Antenna number      Antenna type                            ANT # / TYPE        
        0.0000        0.0000        0.0000                  APPROX POSITION XYZ 
        0.0000        0.0000        0.0000                  ANTENNA: DELTA H/E/N
G    4 C1C L1C D1C S1C                                      SYS / # / OBS TYPES 
DBHZ                                                        SIGNAL STRENGTH UNIT
  2024    12    27    02    42   48.1800000     GPS         TIME OF FIRST OBS   
                                                            END OF HEADER       
> 2024 12 27 02 42 49.0000000  0  4                                             
G29  27820833.704 6 146199421.915 6       288.491 6        41.197               
G26  24390589.324 6 128173395.460 6      1119.844 6        39.417               
G28  25781912.032 7 135484859.353 7      -621.016 7        42.057               
G32  25063304.610 7 131708548.814 7      -429.140 7        44.458               
> 2024 12 27 02 42 50.0000000  0  4                                             
G29  27820783.867 6 146199137.864 6       290.687 6        40.551               
G26  24390376.522 6 128172280.550 6      1112.057 6        39.333               
G28  25782027.323 7 135485477.723 7      -616.764 7        42.356               
G32  25063382.644 7 131708974.444 7      -425.660 7        44.975               
> 2024 12 27 02 42 51.0000000  0  4                                             
G29  27820721.987 6 146198854.312 6       287.951 6        40.991               
G26  24390160.253 6 128171166.176 6      1113.881 6        39.022               
G28  25782146.260 7 135486096.117 7      -622.063 7        42.110               
G32  25063465.306 7 131709400.487 7      -427.036 7        45.101               
> 2024 12 27 02 42 52.0000000  0  4                                             
G29  27820675.134 6 146198571.237 6       280.263 6        40.559               
G26  24389953.294 6 128170052.364 6      1117.290 6        39.269               
G28  25782263.713 6 135486714.522 6      -613.866 6        41.616               
G32  25063545.038 7 131709826.971 7      -428.762 7        45.357               
> 2024 12 27 02 42 53.0000000  0  4                                             
G29  27820623.582 6 146198288.622 6       282.723 6        41.266               
G26  24389735.149 6 128168939.148 6      1111.493 6        39.519               
G28  25782381.988 6 135487332.973 6      -623.174 6        41.876               
G32  25063629.701 7 131710253.917 7      -425.342 7        45.281               
> 2024 12 27 02 42 54.0000000  0  4                                             
G29  27820565.561 6 146198006.528 6       281.389 6        41.550               
G26  24389525.974 6 128167826.489 6      1112.516 6        39.542               
G28  25782503.122 6 135487951.456 6      -622.722 6        41.823               
G32  25063709.951 7 131710681.315 7      -427.099 7        44.958               
> 2024 12 27 02 42 55.0000000  0  4                                             
G29  27820514.063 6 146197724.911 6       278.286 6        41.024               
G26  24389307.525 6 128166714.398 6      1116.797 6        38.974               
G28  25782618.770 6 135488569.987 6      -614.727 6        41.761               
G32  25063790.469 7 131711109.174 7      -426.359 7        45.667               
> 2024 12 27 02 42 56.0000000  0  4                                             
G29  27820449.931 6 146197443.777 6       278.251 6        41.014               
G26  24389102.049 6 128165602.921 6      1110.697 6        38.949               
G28  25782736.295 7 135489188.577 7      -617.622 7        42.028               
G32  25063870.754 7 131711537.502 7      -424.141 7        45.192               
> 2024 12 27 02 42 57.0000000  0  4                                             
G29  27820394.037 6 146197163.145 6       282.471 6        40.914               
G26  24388885.923 6 128164492.017 6      1104.169 6        38.900               
G28  25782858.036 6 135489807.195 6      -619.695 6        41.328               
G32  25063948.681 7 131711966.264 7      -429.179 7        45.417               
> 2024 12 27 02 42 58.0000000  0  4                                             
G29  27820345.254 6 146196883.007 6       275.627 6        40.618               
G26  24388678.679 6 128163381.707 6      1112.672 6        39.136               
G28  25782969.896 6 135490425.853 6      -620.661 6        41.345               
G32  25064029.270 7 131712395.480 7      -425.375 7        45.143               
> 2024 12 27 02 42 59.0000000  0  4                                             
G29  27820292.648 6 146196603.392 6       278.406 6        41.079               
G26  24388466.716 6 128162271.978 6      1102.853 6        39.894               
G28  25783089.119 6 135491044.564 6      -623.131 6        41.877               
G32  25064113.058 7 131712825.180 7      -426.695 7        44.934               
> 2024 12 27 02 43 00.0000000  0  4                                             
G29  27820241.793 6 146196324.245 6       281.152 6        41.155               
G26  24388263.492 6 128161162.814 6      1101.094 6        39.938               
G28  25783212.111 6 135491663.305 6      -614.424 6        40.917               
G32  25064190.610 7 131713255.312 7      -432.997 7        44.386               
> 2024 12 27 02 43 01.0000000  0  4                                             
G29  27820177.589 6 146196045.572 6       280.959 6        40.625               
G26  24388048.956 6 128160054.213 6      1094.490 6        39.839               
G28  25783324.007 6 135492282.093 6      -623.037 6        40.952               
G32  25064272.557 7 131713685.915 7      -434.198 7        44.330               
> 2024 12 27 02 43 02.0000000  0  4                                             
G29  27820122.088 6 146195767.430 6       276.109 6        40.885               
G26  24387839.371 6 128158946.243 6      1103.594 6        39.949               
G28  25783439.888 6 135492900.935 6      -616.985 6        40.980               
G32  25064357.381 7 131714116.971 7      -430.869 7        45.039               
> 2024 12 27 02 43 03.0000000  0  4                                             
G29  27820063.192 6 146195489.791 6       281.420 6        39.986               
G26  24387620.028 6 128157838.811 6      1112.279 6        39.559               
G28  25783556.286 6 135493519.812 6      -613.732 6        41.054               
G32  25064436.684 7 131714548.473 7      -435.336 7        44.888               
> 2024 12 27 02 43 04.0000000  0  4                                             
G29  27820009.853 6 146195212.605 6       274.149 6        39.749               
G26  24387414.481 6 128156731.948 6      1113.554 6        39.462               
G28  25783677.903 6 135494138.699 6      -614.529 6        40.866               
G32  25064522.223 7 131714980.426 7      -432.308 7        45.085               
> 2024 12 27 02 43 05.0000000  0  4                                             
G29  27819958.426 6 146194935.922 6       277.119 6        39.212               
G26  24387203.948 6 128155625.667 6      1112.557 6        39.356               
G28  25783794.659 6 135494757.644 6      -617.611 6        41.054               
G32  25064604.206 7 131715412.827 7      -432.966 7        45.107               
> 2024 12 27 02 43 06.0000000  0  4                                             
G29  27819907.141 6 146194659.728 6       274.446 6        39.128               
G26  24386991.021 6 128154519.956 6      1109.230 6        39.360               
G28  25783916.311 6 135495376.606 6      -622.285 6        40.802               
G32  25064685.689 7 131715845.680 7      -432.792 7        44.972               
> 2024 12 27 02 43 07.0000000  0  4                                             
G29  27819855.714 6 146194384.000 6       273.547 6        39.412               
G26  24386782.936 6 128153414.842 6      1097.247 6        39.567               
G28  25784032.460 6 135495995.615 6      -620.560 6        41.161               
G32  25064766.189 7 131716278.993 7      -432.129 7        44.289               
> 2024 12 27 02 43 08.0000000  0  4                                             
G29  27819807.182 6 146194108.795 6       275.359 6        40.206               
G26  24386570.741 6 128152310.289 6      1104.945 6        39.447               
G28  25784148.609 6 135496614.661 6      -618.740 6        40.964               
G32  25064848.476 7 131716712.754 7      -432.040 7        44.281               
> 2024 12 27 02 43 09.0000000  0  4                                             
G29  27819755.255 6 146193834.076 6       271.763 6        40.306               
G26  24386369.697 6 128151206.345 6      1103.485 6        39.985               
G28  25784269.761 6 135497233.775 6      -618.450 6        40.759               
G32  25064929.440 7 131717147.004 7      -433.408 7        44.179               
> 2024 12 27 02 43 10.0000000  0  4                                             
G29  27819710.010 6 146193559.846 6       272.458 6        40.914               
G26  24386152.767 6 128150102.967 6      1107.862 6        39.772               
G28  25784387.375 6 135497852.923 6      -618.451 6        40.895               
G32  25065013.103 7 131717581.700 7      -434.545 7        44.331               
> 2024 12 27 02 43 11.0000000  0  4                                             
G29  27819663.390 6 146193286.111 6       278.935 6        41.820               
G26  24385948.828 6 128149000.171 6      1108.149 6        40.257               
G28  25784503.720 6 135498472.116 6      -622.514 6        41.310               
G32  25065094.282 7 131718016.849 7      -433.631 7        44.406               
> 2024 12 27 02 43 12.0000000  0  4                                             
G29  27819614.536 7 146193012.867 7       270.864 7        42.399               
G26  24385737.956 6 128147897.959 6      1101.556 6        40.089               
G28  25784626.659 6 135499091.346 6      -619.336 6        41.362               
G32  25065177.766 7 131718452.466 7      -432.799 7        44.127               
> 2024 12 27 02 43 13.0000000  0  4                                             
G29  27819562.091 7 146192740.096 7       271.928 7        42.133               
G26  24385539.163 6 128146796.298 6      1106.266 6        39.904               
G28  25784740.949 6 135499710.604 6      -623.575 6        41.207               
G32  25065261.786 7 131718888.521 7      -437.829 7        44.844               
> 2024 12 27 02 43 14.0000000  0  4                                             
G29  27819515.202 7 146192467.802 7       273.158 7        42.793               
G26  24385313.477 6 128145695.246 6      1099.882 6        38.890               
G28  25784859.796 6 135500329.883 6      -614.232 6        41.206               
G32  25065344.681 7 131719325.018 7      -436.037 7        44.186               
> 2024 12 27 02 43 15.0000000  0  4                                             
G29  27819462.131 7 146192196.001 7       272.181 7        42.607               
G26  24385109.216 6 128144594.743 6      1095.086 6        39.704               
G28  25784975.426 6 135500949.188 6      -614.747 6        41.137               
G32  25065430.059 7 131719761.959 7      -435.689 7        45.157               
> 2024 12 27 02 43 16.0000000  0  4                                             
G29  27819412.491 7 146191924.702 7       269.171 7        42.402               
G26  24384896.396 6 128143494.820 6      1097.441 6        39.095               
G28  25785092.861 6 135501568.565 6      -621.049 6        41.610               
G32  25065517.456 7 131720199.377 7      -437.344 7        44.757               
> 2024 12 27 02 43 17.0000000  0  4                                             
G29  27819356.436 7 146191653.858 7       268.942 7        42.040               
G26  24384680.681 6 128142395.462 6      1116.431 6        38.411               
G28  25785213.442 6 135502187.948 6      -615.419 6        41.135               
G32  25065602.549 7 131720637.215 7      -440.285 7        46.012               
> 2024 12 27 02 43 18.0000000  0  4                                             
G29  27819300.631 7 146191383.654 7       274.958 7        42.142               
G26  24384472.972 6 128141296.804 6      1107.931 6        38.487               
G28  25785332.700 6 135502807.490 6      -620.520 6        41.640               
G32  25065685.568 7 131721075.629 7      -437.356 7        45.326               
> 2024 12 27 02 43 19.0000000  0  4                                             
G29  27819250.669 6 146191114.056 6       268.499 6        41.179               
G26  24384263.690 6 128140198.846 6      1118.143 6        37.999               
G28  25785451.135 7 135503427.192 7      -619.538 7        42.109               
G32  25065772.751 7 131721514.631 7      -437.060 7        45.993               
> 2024 12 27 02 43 20.0000000  0  4                                             
G29  27819198.277 6 146190844.958 6       268.170 6        40.669               
G26  24384049.208 6 128139101.521 6      1106.810 6        36.806               
G28  25785564.890 6 135504046.970 6      -619.513 6        41.946               
G32  25065857.218 7 131721954.094 7      -436.161 7        46.184               
> 2024 12 27 02 43 21.0000000  0  4                                             
G29  27819134.807 6 146190576.358 6       268.093 6        40.465               
G26  24383841.695 6 128138004.707 6      1082.703 6        36.492               
G28  25785688.382 6 135504666.762 6      -617.210 6        41.915               
G32  25065941.149 7 131722394.001 7      -441.302 7        46.314               
> 2024 12 27 02 43 22.0000000  0  4                                             
G29  27819082.790 6 146190308.228 6       267.334 6        40.300               
G26  24383642.330 6 128136908.490 6      1107.756 6        36.194               
G28  25785805.478 6 135505286.585 6      -621.729 6        41.987               
G32  25066025.884 7 131722834.364 7      -439.807 7        46.447               
> 2024 12 27 02 43 23.0000000  0  4                                             
G29  27819030.201 6 146190040.606 6       262.481 6        40.479               
G26  24383422.863 6 128135812.829 6      1105.214 6        36.976               
G28  25785919.268 6 135505906.444 6      -624.100 6        41.926               
G32  25066109.493 7 131723275.177 7      -441.738 7        46.149               
> 2024 12 27 02 43 24.0000000  0  4                                             
G29  27818978.202 6 146189773.450 6       273.513 6        39.657               
G26  24383226.661 6 128134717.764 6      1078.743 6        36.345               
G28  25786039.830 7 135506526.351 7      -621.039 7        42.368               
G32  25066191.726 7 131723716.446 7      -443.554 7        46.669               
> 2024 12 27 02 43 25.0000000  0  4                                             
G29  27818925.328 6 146189506.803 6       262.708 6        39.710               
G26  24383015.681 6 128133623.247 6      1096.413 6        37.353               
G28  25786158.856 7 135507146.275 7      -616.931 7        42.454               
G32  25066277.158 7 131724158.156 7      -441.669 7        46.850               
> 2024 12 27 02 43 26.0000000  0  4                                             
G29  27818870.506 6 146189240.645 6       266.679 6        40.197               
G26  24382811.528 6 128132529.295 6      1102.907 6        36.810               
G28  25786273.200 7 135507766.254 7      -619.367 7        42.442               
G32  25066356.318 7 131724600.335 7      -444.987 7        46.661               
> 2024 12 27 02 43 27.0000000  0  4                                             
G29  27818827.960 6 146188974.963 6       267.366 6        39.798               
G26  24382599.065 6 128131435.982 6      1101.586 6        37.523               
G28  25786396.853 7 135508386.265 7      -620.644 7        42.348               
G32  25066442.589 7 131725042.952 7      -441.187 7        46.538               
> 2024 12 27 02 43 28.0000000  0  4                                             
G29  27818772.709 6 146188709.766 6       266.036 6        39.562               
G26  24382396.716 6 128130343.191 6      1084.296 6        37.906               
G28  25786513.878 7 135509006.300 7      -615.841 7        42.474               
G32  25066526.288 7 131725486.031 7      -440.764 7        46.962               
> 2024 12 27 02 43 29.0000000  0  4                                             
G29  27818730.198 6 146188445.104 6       267.405 6        40.386               
G26  24382193.760 6 128129251.029 6      1089.326 6        37.516               
G28  25786628.222 7 135509626.410 7      -624.380 7        43.253               
G32  25066610.415 7 131725929.563 7      -441.433 7        46.731               
> 2024 12 27 02 43 30.0000000  0  4                                             
G29  27818683.739 6 146188180.962 6       261.301 6        41.331               
G26  24381983.370 6 128128159.416 6      1093.241 6        37.476               
G28  25786747.497 7 135510246.559 7      -620.181 7        42.583               
G32  25066695.829 7 131726373.578 7      -443.482 7        46.517               
> 2024 12 27 02 43 31.0000000  0  4                                             
G29  27818637.637 6 146187917.226 6       263.974 6        40.355               
G26  24381781.718 6 128127068.386 6      1089.842 6        37.454               
G28  25786865.486 7 135510866.699 7      -620.055 7        42.042               
G32  25066782.208 7 131726818.031 7      -444.200 7        46.979               
> 2024 12 27 02 43 32.0000000  0  4                                             
G29  27818585.173 6 146187654.057 6       258.585 6        41.187               
G26  24381570.095 6 128125977.954 6      1081.287 6        38.329               
G28  25786979.920 6 135511486.916 6      -619.561 6        41.573               
G32  25066867.193 7 131727262.941 7      -445.217 7        47.102               
> 2024 12 27 02 43 33.0000000  0  4                                             
G29  27818538.732 6 146187391.316 6       259.549 6        41.716               
G26  24381363.887 6 128124888.061 6      1086.934 6        37.201               
G28  25787103.984 6 135512107.162 6      -618.261 6        41.560               
G32  25066952.017 7 131727708.292 7      -445.917 7        47.148               
> 2024 12 27 02 43 34.0000000  0  4                                             
G29  27818492.773 7 146187129.095 7       262.020 7        42.029               
G26  24381154.533 6 128123798.739 6      1091.152 6        37.290               
G28  25787222.724 6 135512727.449 6      -612.724 6        41.969               
G32  25067038.342 7 131728154.107 7      -444.793 7        46.789               
> 2024 12 27 02 43 35.0000000  0  4                                             
G29  27818444.276 7 146186867.336 7       258.714 7        42.364               
G26  24380951.273 6 128122709.987 6      1087.885 6        37.736               
G28  25787337.211 6 135513347.751 6      -622.637 6        41.373               
G32  25067120.772 7 131728600.345 7      -445.417 7        46.789               
> 2024 12 27 02 43 36.0000000  0  4                                             
G29  27818397.924 7 146186606.053 7       260.269 7        42.057               
G26  24380731.752 6 128121621.832 6      1080.107 6        37.275               
G28  25787452.537 6 135513968.063 6      -620.173 6        41.200               
G32  25067205.489 7 131729047.049 7      -448.375 7        46.639               
> 2024 12 27 02 43 37.0000000  0  4                                             
G29  27818347.837 7 146186345.261 7       258.500 7        42.224               
G26  24380524.329 6 128120534.253 6      1072.156 6        36.799               
G28  25787569.722 6 135514588.420 6      -617.000 6        41.165               
G32  25067287.294 7 131729494.184 7      -443.033 7        46.357               
> 2024 12 27 02 43 38.0000000  0  4                                             
G29  27818301.395 7 146186084.952 7       259.919 7        42.831               
G26  24380320.497 6 128119447.246 6      1083.348 6        36.480               
G28  25787688.855 6 135515208.825 6      -620.660 6        41.144               
G32  25067373.369 7 131729941.798 7      -447.257 7        46.339               
> 2024 12 27 02 43 39.0000000  0  4                                             
G29  27818248.146 7 146185825.168 7       260.916 7        43.285               
G26  24380105.586 5 128118360.828 5      1101.308 5        35.995               
G28  25787808.667 6 135515829.295 6      -621.073 6        40.569               
G32  25067455.548 7 131730389.871 7      -450.078 7        46.238               
> 2024 12 27 02 43 40.0000000  0  4                                             
G29  27818199.345 7 146185565.867 7       263.973 7        42.900               
G26  24379899.449 6 128117274.989 6      1082.922 6        36.451               
G28  25787924.101 6 135516449.799 6      -620.912 6        40.272               
G32  25067535.619 7 131730838.395 7      -447.370 7        46.166               
> 2024 12 27 02 43 41.0000000  0  4                                             
G29  27818144.237 7 146185307.064 7       260.642 7        42.929               
G26  24379684.020 5 128116189.765 5      1072.759 5        35.306               
G28  25788035.532 6 135517070.338 6      -621.227 6        40.258               
G32  25067624.053 7 131731287.381 7      -447.164 7        46.253               
> 2024 12 27 02 43 42.0000000  0  4                                             
G29  27818090.952 7 146185048.740 7       257.102 7        42.491               
G26  24379476.650 5 128115105.003 5      1097.732 5        34.699               
G28  25788160.544 6 135517690.887 6      -622.364 6        40.694               
G32  25067709.753 7 131731736.808 7      -449.527 7        46.310               
> 2024 12 27 02 43 43.0000000  0  4                                             
G29  27818043.706 7 146184790.905 7       257.182 7        42.232               
G26  24379276.713 5 128114020.918 5      1084.664 5        35.268               
G28  25788274.620 6 135518311.498 6      -619.376 6        40.207               
G32  25067795.649 7 131732186.686 7      -446.362 7        46.314               
> 2024 12 27 02 43 44.0000000  0  4                                             
G29  27817992.994 6 146184533.597 6       259.614 6        41.934               
G26  24379073.668 5 128112937.377 5      1095.890 5        34.590               
G28  25788393.788 6 135518932.153 6      -625.650 6        40.512               
G32  25067882.689 7 131732637.051 7      -451.443 7        46.154               
> 2024 12 27 02 43 45.0000000  0  4                                             
G29  27817931.864 6 146184276.783 6       255.297 6        41.092               
G26  24378873.338 5 128111854.416 5      1095.290 5        34.429               
G28  25788509.311 6 135519552.856 6      -620.924 6        40.084               
G32  25067969.033 7 131733087.880 7      -451.615 7        46.563               
> 2024 12 27 02 43 46.0000000  0  4                                             
G29  27817879.794 6 146184020.434 6       255.682 6        40.864               
G26  24378668.255 5 128110772.040 5      1061.390 5        34.682               
G28  25788628.069 6 135520173.565 6      -619.344 6        40.168               
G32  25068056.269 7 131733539.121 7      -450.533 7        46.333               
> 2024 12 27 02 43 47.0000000  0  4                                             
G29  27817834.942 6 146183764.563 6       252.936 6        40.439               
G26  24378468.355 5 128109690.216 5      1084.732 5        35.506               
G28  25788741.198 6 135520794.308 6      -622.409 6        39.826               
G32  25068141.308 7 131733990.837 7      -455.521 7        46.228               
> 2024 12 27 02 44 37.0000000  0  4                                             
G29  27815523.245 7 146171572.002 7       230.791 7        42.833               
G28  25794673.588 6 135551911.291 6      -623.401 6        41.940               
G16  26226096.292 6 137819060.474 6      3160.553 6        40.867               
G32  25072546.004 7 131757135.124 7      -479.816 7        43.561               
> 2024 12 27 02 44 38.0000000  0  4                                             
G29  27815482.182 7 146171341.840 7       227.157 7        43.078               
G28  25794792.042 6 135552534.510 6      -625.116 6        41.689               
G16  26225496.983 6 137815902.168 6      3161.561 6        40.805               
G32  25072634.617 7 131757610.675 7      -481.214 7        43.698               
> 2024 12 27 02 44 39.0000000  0  4                                             
G29  27815443.191 7 146171112.187 7       230.366 7        43.725               
G28  25794905.743 6 135553157.752 6      -620.460 6        41.917               
G16  26224895.601 6 137812744.217 6      3159.511 6        41.617               
G32  25072730.412 7 131758086.671 7      -476.620 7        43.426               
> 2024 12 27 02 44 40.0000000  0  4                                             
G29  27815394.230 7 146170883.010 7       233.461 7        42.984               
G28  25795023.071 6 135553781.059 6      -632.104 6        41.647               
G16  26224296.077 6 137809586.623 6      3157.085 6        41.778               
G32  25072818.078 7 131758563.119 7      -480.444 7        44.037               
> 2024 12 27 02 44 41.0000000  0  4                                             
G29  27815354.829 7 146170654.334 7       233.470 7        42.543               
G28  25795144.991 6 135554404.355 6      -620.009 6        41.183               
G16  26223688.941 6 137806429.423 6      3150.814 6        41.775               
G32  25072907.745 7 131759040.021 7      -478.872 7        44.178               
> 2024 12 27 02 44 42.0000000  0  4                                             
G29  27815311.407 6 146170426.142 6       228.481 6        41.970               
G28  25795257.101 6 135555027.713 6      -625.696 6        41.057               
G16  26223092.366 6 137803272.565 6      3157.922 6        41.797               
G32  25073001.771 7 131759517.357 7      -473.418 7        44.183               
> 2024 12 27 02 44 43.0000000  0  4                                             
G29  27815268.754 7 146170198.440 7       223.912 7        42.463               
G28  25795379.593 6 135555651.088 6      -623.435 6        41.094               
G16  26222489.555 6 137800116.096 6      3160.159 6        41.564               
G32  25073091.831 7 131759995.155 7      -475.307 7        44.917               
> 2024 12 27 02 44 44.0000000  0  4                                             
G29  27815228.638 7 146169971.214 7       230.129 7        42.549               
G28  25795499.405 6 135556274.494 6      -618.755 6        41.436               
G16  26221888.602 6 137796960.000 6      3155.733 6        41.699               
G32  25073183.106 7 131760473.406 7      -479.411 7        44.934               
> 2024 12 27 02 44 45.0000000  0  4                                             
G29  27815181.571 7 146169744.474 7       224.390 7        43.039               
G28  25795620.915 6 135556897.911 6      -620.804 6        41.784               
G16  26221290.329 6 137793804.245 6      3157.808 6        41.494               
G32  25073273.095 7 131760952.107 7      -478.577 7        44.730               
> 2024 12 27 02 44 46.0000000  0  4                                             
G29  27815142.724 7 146169518.253 7       218.252 7        42.991               
G28  25795738.386 6 135557521.394 6      -621.098 6        41.727               
G16  26220686.731 6 137790648.908 6      3157.759 6        40.793               
G32  25073366.657 7 131761431.266 7      -483.619 7        44.637               
> 2024 12 27 02 44 47.0000000  0  4                                             
G29  27815097.301 7 146169292.481 7       224.849 7        43.018               
G28  25795860.485 7 135558144.902 7      -626.085 7        42.122               
G16  26220082.758 6 137787493.916 6      3154.842 6        40.280               
G32  25073457.539 7 131761910.857 7      -480.924 7        45.055               
> 2024 12 27 02 44 48.0000000  0  4                                             
G29  27815054.790 7 146169067.196 7       226.787 7        43.013               
G28  25795977.312 6 135558768.414 6      -621.598 6        41.559               
G16  26219486.665 6 137784339.287 6      3156.645 6        40.453               
G32  25073544.918 7 131762390.878 7      -479.858 7        45.196               
> 2024 12 27 02 44 49.0000000  0  4                                             
G29  27815007.956 7 146168842.445 7       227.723 7        43.056               
G28  25796096.105 7 135559392.000 7      -628.486 7        42.253               
G16  26218881.120 6 137781185.092 6      3151.406 6        40.199               
G32  25073636.658 7 131762871.429 7      -482.281 7        44.972               
> 2024 12 27 02 44 50.0000000  0  4                                             
G29  27814965.588 7 146168618.203 7       222.758 7        42.752               
G28  25796215.167 6 135560015.649 6      -625.268 6        41.312               
G16  26218284.313 6 137778031.257 6      3151.582 6        40.300               
G32  25073727.075 7 131763352.422 7      -483.993 7        44.497               
> 2024 12 27 02 44 51.0000000  0  4                                             
G29  27814924.436 7 146168394.449 7       226.429 7        42.735               
G28  25796334.478 6 135560639.292 6      -623.993 6        41.446               
G16  26217674.693 6 137774877.818 6      3151.240 6        39.895               
G32  25073816.420 7 131763833.875 7      -481.615 7        44.566               
> 2024 12 27 02 44 52.0000000  0  4                                             
G29  27814882.783 7 146168171.206 7       221.072 7        42.402               
G28  25796448.733 6 135561262.992 6      -617.569 6        41.533               
G16  26217074.741 6 137771724.731 6      3144.511 6        40.085               
G32  25073910.572 7 131764315.778 7      -485.193 7        44.585               
> 2024 12 27 02 44 53.0000000  0  4                                             
G29  27814839.093 7 146167948.454 7       216.735 7        42.023               
G28  25796571.314 6 135561886.755 6      -625.190 6        41.707               
G16  26216473.877 6 137768572.047 6      3148.652 6        38.997               
G32  25074003.009 7 131764798.153 7      -476.619 7        44.904               
> 2024 12 27 02 44 54.0000000  0  4                                             
G29  27814789.543 7 146167726.205 7       220.211 7        42.161               
G28  25796691.162 6 135562510.547 6      -619.097 6        41.758               
G16  26215868.206 6 137765419.758 6      3150.021 6        38.509               
G32  25074097.303 7 131765281.001 7      -485.123 7        45.417               
> 2024 12 27 02 44 55.0000000  0  4                                             
G29  27814748.587 7 146167504.422 7       221.345 7        43.020               
G28  25796807.257 7 135563134.341 7      -621.237 7        42.134               
G16  26215265.395 6 137762267.793 6      3148.868 6        38.615               
G32  25074188.578 7 131765764.267 7      -482.361 7        44.700               
> 2024 12 27 02 44 56.0000000  0  4                                             
G29  27814708.417 7 146167283.139 7       227.724 7        42.634               
G28  25796920.725 6 135563758.178 6      -622.078 6        41.840               
G16  26214665.281 6 137759116.222 6      3148.601 6        38.296               
G32  25074284.106 7 131766247.995 7      -484.540 7        45.495               
> 2024 12 27 02 44 57.0000000  0  4                                             
G29  27814665.335 7 146167062.381 7       222.104 7        42.455               
G28  25797046.380 6 135564382.060 6      -624.032 6        41.890               
G16  26214069.707 6 137755965.050 6      3148.554 6        38.587               
G32  25074379.598 7 131766732.198 7      -486.735 7        45.764               
> 2024 12 27 02 44 58.0000000  0  4                                             
G29  27814629.061 7 146166842.088 7       220.953 7        42.032               
G28  25797160.956 6 135565005.979 6      -622.315 6        41.954               
G16  26213466.878 6 137752814.249 6      3149.324 6        38.177               
G32  25074470.176 7 131767216.837 7      -484.348 7        45.467               
> 2024 12 27 02 44 59.0000000  0  4                                             
G29  27814579.635 7 146166622.294 7       219.375 7        42.230               
G28  25797281.018 7 135565629.923 7      -619.456 7        42.737               
G16  26212873.233 6 137749663.813 6      3142.234 6        38.705               
G32  25074565.508 7 131767701.958 7      -486.773 7        45.841               
> 2024 12 27 02 45 00.0000000  0  4                                             
G29  27814537.857 7 146166402.968 7       217.072 7        42.318               
G28  25797399.758 7 135566253.889 7      -628.110 7        42.591               
G16  26212273.942 6 137746513.722 6      3151.813 6        39.036               
G32  25074658.873 7 131768187.484 7      -483.966 7        45.681               
> 2024 12 27 02 45 01.0000000  0  4                                             
G29  27814494.471 7 146166184.131 7       210.330 7        42.037               
G28  25797512.654 7 135566877.863 7      -627.445 7        42.534               
G16  26211679.725 6 137743364.010 6      3149.961 6        39.336               
G32  25074749.165 7 131768673.473 7      -490.334 7        45.959               
> 2024 12 27 02 45 02.0000000  0  4                                             
G29  27814459.538 6 146165965.804 6       217.425 6        41.916               
G28  25797634.360 7 135567501.899 7      -621.959 7        42.219               
G16  26211079.254 6 137740214.703 6      3145.187 6        39.090               
G32  25074841.906 7 131769159.946 7      -489.305 7        45.429               
> 2024 12 27 02 45 03.0000000  0  4                                             
G29  27814414.472 6 146165747.988 6       217.943 6        41.733               
G28  25797751.152 7 135568125.974 7      -625.341 7        42.851               
G16  26210485.056 6 137737065.760 6      3151.220 6        39.241               
G32  25074931.465 7 131769646.869 7      -486.642 7        45.497               
> 2024 12 27 02 45 04.0000000  0  4                                             
G29  27814376.732 6 146165530.672 6       218.985 6        41.176               
G28  25797869.803 7 135568750.111 7      -628.309 7        42.672               
G16  26209882.763 6 137733917.216 6      3149.865 6        40.459               
G32  25075021.471 7 131770134.262 7      -489.506 7        45.011               
> 2024 12 27 02 45 05.0000000  0  4                                             
G29  27814337.617 6 146165313.865 6       215.670 6        41.514               
G28  25797990.007 7 135569374.276 7      -626.549 7        42.302               
G16  26209285.991 6 137730769.064 6      3152.957 6        40.540               
G32  25075114.104 7 131770622.130 7      -485.919 7        44.833               
> 2024 12 27 02 45 06.0000000  0  4                                             
G29  27814299.753 6 146165097.572 6       216.471 6        41.998               
G28  25798107.246 7 135569998.507 7      -621.573 7        42.283               
G16  26208686.110 6 137727621.297 6      3146.211 6        40.091               
G32  25075204.879 7 131771110.463 7      -482.813 7        44.573               
> 2024 12 27 02 45 07.0000000  0  4                                             
G29  27814249.987 7 146164881.776 7       216.821 7        42.246               
G28  25798226.879 7 135570622.765 7      -624.824 7        42.112               
G16  26208089.517 6 137724473.923 6      3141.527 6        40.402               
G32  25075295.582 7 131771599.255 7      -488.578 7        44.613               
> 2024 12 27 02 45 08.0000000  0  4                                             
G29  27814218.627 7 146164666.466 7       213.382 7        42.400               
G28  25798344.511 7 135571247.047 7      -622.981 7        42.298               
G16  26207485.865 6 137721326.905 6      3144.590 6        40.766               
G32  25075389.323 7 131772088.489 7      -489.966 7        44.356               
> 2024 12 27 02 45 09.0000000  0  4                                             
G29  27814179.601 7 146164451.638 7       216.935 7        42.449               
G28  25798465.163 6 135571871.378 6      -624.386 6        41.874               
G16  26206889.505 6 137718180.287 6      3146.395 6        40.685               
G32  25075480.330 7 131772578.189 7      -486.296 7        44.318               
> 2024 12 27 02 45 10.0000000  0  4                                             
G29  27814139.861 7 146164237.303 7       213.695 7        42.221               
G28  25798582.920 6 135572495.734 6      -622.543 6        41.886               
G16  26206294.716 6 137715034.012 6      3144.776 6        40.838               
G32  25075578.020 7 131773068.330 7      -488.212 7        44.583               
> 2024 12 27 02 45 11.0000000  0  4                                             
G29  27814099.745 7 146164023.460 7       213.829 7        42.253               
G28  25798701.052 6 135573120.111 6      -624.769 6        41.648               
G16  26205692.655 6 137711888.122 6      3148.426 6        40.145               
G32  25075674.888 7 131773558.941 7      -489.697 7        44.948               
> 2024 12 27 02 45 12.0000000  0  5                                             
G29  27814055.644 7 146163810.160 7       209.704 7        42.635               
G31  25431890.662 6 133645492.449 6       192.024 6        39.266               
G28  25798820.435 6 135573744.582 6      -628.452 6        41.722               
G16  26205093.936 6 137708742.653 6      3147.018 6        39.935               
G32  25075771.559 7 131774050.061 7      -492.149 7        44.655               
> 2024 12 27 02 45 13.0000000  0  5                                             
G29  27814019.263 7 146163597.319 7       216.633 7        42.975               
G31  25431859.195 6 133645307.296 6       180.259 6        38.578               
G28  25798937.745 6 135574369.069 6      -623.856 6        41.673               
G16  26204489.445 6 137705597.558 6      3144.938 6        39.235               
G32  25075862.459 7 131774541.604 7      -492.915 7        44.947               
> 2024 12 27 02 45 14.0000000  0  5                                             
G29  27813974.143 7 146163384.984 7       211.007 7        42.805               
G31  25431817.774 6 133645122.262 6       186.178 6        38.737               
G28  25799051.374 6 135574993.582 6      -626.556 6        41.708               
G16  26203889.867 6 137702452.837 6      3147.455 6        38.932               
G32  25075960.900 7 131775033.602 7      -492.206 7        45.625               
> 2024 12 27 02 45 15.0000000  0  5                                             
G29  27813933.045 7 146163173.146 7       210.310 7        42.442               
G31  25431781.447 6 133644937.392 6       186.826 6        38.244               
G28  25799174.295 6 135575618.138 6      -626.593 6        41.380               
G16  26203298.188 6 137699308.512 6      3149.839 6        39.323               
G32  25076055.230 7 131775526.068 7      -496.030 7        45.683               
> 2024 12 27 02 45 16.0000000  0  5                                             
G29  27813886.907 7 146162961.803 7       213.879 7        42.427               
G31  25431746.066 6 133644752.642 6       184.907 6        37.227               
G28  25799291.248 6 135576242.743 6      -627.677 6        41.462               
G16  26202688.926 6 137696164.555 6      3151.473 6        39.504               
G32  25076151.741 7 131776019.010 7      -490.962 7        45.661               
> 2024 12 27 02 45 17.0000000  0  5                                             
G29  27813845.218 7 146162750.965 7       211.053 7        42.447               
G31  25431704.521 6 133644568.012 6       179.542 6        37.552               
G28  25799405.306 6 135576867.357 6      -625.374 6        41.092               
G16  26202082.916 6 137693020.966 6      3140.724 6        38.655               
G32  25076240.603 7 131776512.393 7      -494.781 7        45.280               
> 2024 12 27 02 45 18.0000000  0  5                                             
G29  27813805.370 6 146162540.608 6       207.565 6        41.770               
G31  25431678.289 6 133644383.520 6       181.519 6        37.261               
G28  25799527.315 6 135577492.013 6      -627.719 6        41.238               
G16  26201488.271 6 137689877.757 6      3147.502 6        38.251               
G32  25076337.078 7 131777006.243 7      -495.085 7        45.474               
> 2024 12 27 02 45 19.0000000  0  5                                             
G29  27813763.217 6 146162330.740 6       211.561 6        41.530               
G31  25431639.442 6 133644199.143 6       183.544 6        37.349               
G28  25799644.125 6 135578116.695 6      -627.974 6        41.124               
G16  26200887.782 6 137686734.938 6      3143.244 6        37.909               
G32  25076428.407 7 131777500.524 7      -493.650 7        45.261               
> 2024 12 27 02 45 20.0000000  0  5                                             
G29  27813723.209 6 146162121.366 6       211.713 6        41.395               
G31  25431602.614 6 133644014.885 6       188.944 6        37.587               
G28  25799763.848 6 135578741.426 6      -623.046 6        40.823               
G16  26200292.905 6 137683592.498 6      3136.773 6        37.923               
G32  25076524.024 7 131777995.285 7      -495.457 7        45.646               
> 2024 12 27 02 45 21.0000000  0  5                                             
G29  27813679.537 6 146161912.523 6       204.930 6        41.483               
G31  25431564.445 6 133643830.784 6       185.416 6        37.545               
G28  25799882.069 6 135579366.194 6      -630.541 6        41.194               
G16  26199693.864 6 137680450.413 6      3144.246 6        38.414               
G32  25076616.568 7 131778490.471 7      -497.842 7        45.106               
> 2024 12 27 02 45 22.0000000  0  5                                             
G29  27813641.976 6 146161704.172 6       209.592 6        41.343               
G31  25431526.688 6 133643646.854 6       193.846 6        37.387               
G28  25799999.343 6 135579991.008 6      -623.592 6        40.955               
G16  26199100.755 6 137677308.749 6      3134.125 6        38.223               
G32  25076710.666 7 131778986.177 7      -496.961 7        44.739               
> 2024 12 27 02 45 23.0000000  0  5                                             
G29  27813608.275 6 146161496.354 6       207.443 6        41.132               
G31  25431503.762 6 133643463.031 6       181.527 6        37.682               
G28  25800122.836 6 135580615.880 6      -620.825 6        41.392               
G16  26198498.033 6 137674167.477 6      3148.767 6        38.334               
G32  25076802.441 7 131779482.326 7      -494.832 7        44.784               
> 2024 12 27 02 45 24.0000000  0  5                                             
G29  27813570.965 6 146161288.988 6       204.746 6        41.307               
G31  25431475.690 6 133643279.319 6       191.357 6        37.439               
G28  25800241.272 6 135581240.781 6      -621.341 6        40.867               
G16  26197905.978 6 137671026.561 6      3140.375 6        39.030               
G32  25076895.610 7 131779978.943 7      -496.476 7        44.748               
> 2024 12 27 02 45 25.0000000  0  5                                             
G29  27813528.043 6 146161082.120 6       209.714 6        41.574               
G31  25431430.124 6 133643095.733 6       182.765 6        37.041               
G28  25800360.101 6 135581865.711 6      -621.479 6        40.603               
G16  26197309.225 6 137667886.042 6      3142.817 6        39.208               
G32  25076991.960 7 131780475.996 7      -501.068 7        44.671               
> 2024 12 27 02 45 26.0000000  0  5                                             
G29  27813494.735 6 146160875.767 6       202.157 6        41.491               
G31  25431401.230 6 133642912.291 6       188.121 6        37.184               
G28  25800474.767 6 135582490.673 6      -627.912 6        40.072               
G16  26196717.688 6 137664745.903 6      3142.689 6        39.776               
G32  25077085.254 7 131780973.526 7      -499.942 7        44.353               
> 2024 12 27 02 45 27.0000000  0  5                                             
G29  27813454.548 6 146160669.912 6       206.566 6        41.762               
G31  25431360.864 6 133642729.000 6       183.617 6        38.048               
G28  25800602.637 6 135583115.665 6      -623.040 6        40.420               
G16  26196120.184 6 137661606.144 6      3132.865 6        40.179               
G32  25077181.693 7 131781471.508 7      -496.642 7        44.830               
> 2024 12 27 02 45 28.0000000  0  5                                             
G29  27813422.330 6 146160464.563 6       204.381 6        41.529               
G31  25431325.036 6 133642545.841 6       183.740 6        37.752               
G28  25800717.214 6 135583740.742 6      -622.906 6        40.050               
G16  26195527.522 6 137658466.774 6      3135.173 6        40.546               
G32  25077275.130 7 131781969.978 7      -499.387 7        44.793               
> 2024 12 27 02 45 29.0000000  0  5                                             
G29  27813381.428 6 146160259.723 6       205.590 6        41.544               
G31  25431289.941 6 133642362.843 6       173.982 6        37.574               
G28  25800839.456 6 135584365.862 6      -622.508 6        40.137               
G16  26194929.089 6 137655327.818 6      3144.317 6        40.584               
G32  25077368.442 7 131782468.934 7      -501.906 7        45.277               
> 2024 12 27 02 45 30.0000000  0  5                                             
G29  27813342.098 6 146160055.405 6       208.445 6        41.509               
G31  25431252.738 6 133642179.982 6       181.459 6        38.178               
G28  25800956.247 6 135584991.033 6      -626.716 6        39.511               
G16  26194329.904 6 137652189.236 6      3143.546 6        40.543               
G32  25077465.882 7 131782968.338 7      -504.373 7        44.681               
> 2024 12 27 02 45 31.0000000  0  5                                             
G29  27813298.230 6 146159851.580 6       201.194 6        41.752               
G31  25431224.523 6 133641997.244 6       180.094 6        38.327               
G28  25801073.093 6 135585616.243 6      -625.614 6        39.732               
G16  26193737.046 6 137649051.044 6      3143.527 6        41.360               
G32  25077559.587 7 131783468.215 7      -499.365 7        44.914               
> 2024 12 27 02 45 32.0000000  0  5                                             
G29  27813265.369 6 146159648.222 6       204.775 6        41.388               
G31  25431191.358 6 133641814.637 6       179.186 6        38.948               
G28  25801195.657 6 135586241.494 6      -626.359 6        39.613               
G16  26193142.401 6 137645913.237 6      3134.396 6        41.559               
G32  25077656.866 7 131783968.541 7      -501.858 7        44.592               
> 2024 12 27 02 45 33.0000000  0  5                                             
G29  27813223.323 6 146159445.400 6       202.565 6        41.740               
G31  25431157.496 6 133641632.164 6       181.703 6        38.766               
G28  25801306.981 6 135586866.783 6      -627.053 6        39.693               
G16  26192542.502 6 137642775.826 6      3136.650 6        41.163               
G32  25077751.662 7 131784469.337 7      -498.315 7        44.942               
> 2024 12 27 02 45 34.0000000  0  5                                             
G29  27813190.587 6 146159243.075 6       199.989 6        41.332               
G31  25431126.136 6 133641449.833 6       181.286 6        39.137               
G28  25801431.027 6 135587492.102 6      -621.677 6        39.620               
G16  26191949.894 6 137639638.769 6      3136.805 6        41.532               
G32  25077848.011 7 131784970.605 7      -499.440 7        44.874               
> 2024 12 27 02 45 35.0000000  0  5                                             
G29  27813150.399 6 146159041.220 6       200.868 6        41.915               
G31  25431092.435 6 133641267.623 6       186.990 6        39.305               
G28  25801548.427 6 135588117.444 6      -624.839 6        40.291               
G16  26191351.424 6 137636502.098 6      3131.438 6        41.939               
G32  25077946.076 7 131785472.303 7      -502.986 7        45.072               
> 2024 12 27 02 45 36.0000000  0  5                                             
G29  27813112.231 7 146158839.892 7       200.965 7        42.372               
G31  25431063.505 6 133641085.572 6       179.432 6        39.652               
G28  25801672.098 6 135588742.831 6      -626.348 6        40.477               
G16  26190753.026 7 137633365.833 7      3135.506 7        42.117               
G32  25078041.158 7 131785974.494 7      -499.980 7        45.704               
> 2024 12 27 02 45 37.0000000  0  5                                             
G29  27813069.792 7 146158639.021 7       201.770 7        42.040               
G31  25431029.500 6 133640903.612 6       180.085 6        40.327               
G28  25801790.606 6 135589368.244 6      -618.694 6        40.535               
G16  26190157.112 6 137630229.923 6      3134.161 6        41.693               
G32  25078138.204 7 131786477.125 7      -502.197 7        46.068               
> 2024 12 27 02 45 38.0000000  0  5                                             
G29  27813032.499 7 146158438.716 7       201.187 7        42.077               
G31  25430992.780 6 133640721.810 6       185.175 6        39.836               
G28  25801910.346 6 135589993.763 6      -630.631 6        40.778               
G16  26189560.019 6 137627094.441 6      3139.842 6        41.766               
G32  25078230.766 7 131786980.249 7      -502.150 7        46.116               
> 2024 12 27 02 45 39.0000000  0  5                                             
G29  27812987.344 6 146158238.948 6       194.547 6        41.888               
G31  25430952.735 6 133640540.210 6       174.680 6        39.531               
G28  25802033.464 6 135590619.316 6      -626.458 6        41.253               
G16  26188962.550 6 137623959.386 6      3135.740 6        41.815               
G32  25078330.493 7 131787483.898 7      -503.769 7        46.021               
> 2024 12 27 02 45 40.0000000  0  5                                             
G29  27812948.086 6 146158039.676 6       197.213 6        41.254               
G31  25430918.659 6 133640358.741 6       177.329 6        39.449               
G28  25802147.325 6 135591244.946 6      -621.762 6        40.464               
G16  26188363.902 6 137620824.727 6      3130.629 6        41.510               
G32  25078425.377 7 131787987.996 7      -501.332 7        45.729               
> 2024 12 27 02 45 41.0000000  0  5                                             
G29  27812906.273 6 146157840.925 6       196.724 6        41.318               
G31  25430888.424 6 133640177.384 6       181.138 6        39.416               
G28  25802268.441 6 135591870.595 6      -624.218 6        40.984               
G16  26187769.025 6 137617690.429 6      3135.062 6        40.850               
G32  25078520.780 7 131788492.557 7      -502.549 7        46.068               
> 2024 12 27 02 45 42.0000000  0  5                                             
G29  27812865.281 6 146157642.648 6       195.868 6        41.119               
G31  25430850.346 6 133639996.158 6       176.424 6        38.962               
G28  25802393.721 6 135592496.289 6      -626.155 6        41.281               
G16  26187170.823 6 137614556.540 6      3131.806 6        40.591               
G32  25078615.861 7 131788997.570 7      -504.562 7        45.675               
> 2024 12 27 02 45 43.0000000  0  5                                             
G29  27812829.883 6 146157444.904 6       198.882 6        40.883               
G31  25430810.533 6 133639815.071 6       171.929 6        38.926               
G28  25802512.657 6 135593121.997 6      -625.562 6        41.723               
G16  26186566.833 6 137611423.036 6      3129.254 6        40.284               
G32  25078708.119 7 131789503.028 7      -506.811 7        45.795               
> 2024 12 27 02 45 44.0000000  0  5                                             
G29  27812786.675 6 146157247.624 6       194.403 6        40.665               
G31  25430778.673 6 133639634.077 6       185.399 6        39.188               
G28  25802627.912 7 135593747.745 7      -627.862 7        42.046               
G16  26185978.477 6 137608289.895 6      3130.826 6        40.616               
G32  25078803.736 7 131790008.948 7      -502.980 7        45.917               
> 2024 12 27 02 45 45.0000000  0  5                                             
G29  27812748.239 6 146157050.817 6       201.470 6        40.714               
G31  25430745.794 6 133639453.240 6       181.527 6        39.693               
G28  25802746.688 7 135594373.514 7      -624.619 7        42.489               
G16  26185374.861 6 137605157.120 6      3131.237 6        40.638               
G32  25078900.300 7 131790515.306 7      -507.359 7        45.488               
> 2024 12 27 02 45 46.0000000  0  5                                             
G29  27812717.397 6 146156854.518 6       193.168 6        41.208               
G31  25430708.859 6 133639272.495 6       185.481 6        40.212               
G28  25802871.360 7 135594999.328 7      -630.994 7        42.357               
G16  26184780.288 6 137602024.746 6      3132.195 6        40.024               
G32  25078996.042 7 131791022.121 7      -506.131 7        45.491               
> 2024 12 27 02 45 47.0000000  0  5                                             
G29  27812687.592 6 146156658.696 6       193.598 6        41.751               
G31  25430684.432 6 133639091.912 6       172.830 6        39.735               
G28  25802989.724 7 135595625.125 7      -630.717 7        42.536               
G16  26184175.171 6 137598892.732 6      3129.277 6        39.802               
G32  25079091.856 7 131791529.395 7      -508.682 7        45.256               
> 2024 12 27 02 45 48.0000000  0  5                                             
G29  27812656.374 6 146156463.390 6       194.723 6        41.874               
G31  25430642.386 6 133638911.422 6       181.268 6        40.501               
G28  25803105.855 7 135596250.998 7      -628.849 7        42.542               
G16  26183589.353 6 137595761.086 6      3133.626 6        40.014               
G32  25079191.261 7 131792037.121 7      -510.416 7        45.752               
> 2024 12 27 02 45 49.0000000  0  5                                             
G29  27812627.248 7 146156268.544 7       191.282 7        42.256               
G31  25430612.402 6 133638731.076 6       184.796 6        40.103               
G28  25803224.577 7 135596876.883 7      -624.255 7        43.049               
G16  26182987.739 6 137592629.819 6      3132.908 6        39.879               
G32  25079287.790 7 131792545.309 7      -510.507 7        45.595               
> 2024 12 27 02 45 50.0000000  0  5                                             
G29  27812592.207 7 146156074.202 7       193.922 7        42.794               
G31  25430579.112 6 133638550.847 6       174.222 6        40.722               
G28  25803344.603 7 135597502.808 7      -625.929 7        43.046               
G16  26182394.702 6 137589498.944 6      3127.445 6        39.838               
G32  25079388.446 7 131793053.953 7      -507.032 7        45.215               
> 2024 12 27 02 45 51.0000000  0  5                                             
G29  27812556.487 7 146155880.349 7       193.269 7        43.053               
G31  25430546.161 6 133638370.758 6       180.930 6        40.556               
G28  25803465.505 7 135598128.761 7      -625.653 7        43.390               
G16  26181799.341 6 137586368.423 6      3130.229 6        40.135               
G32  25079485.314 7 131793563.042 7      -509.457 7        45.283               
> 2024 12 27 02 45 52.0000000  0  5                                             
G29  27812524.876 7 146155687.005 7       194.605 7        43.706               
G31  25430512.639 6 133638190.784 6       179.152 6        40.959               
G28  25803582.636 7 135598754.756 7      -629.288 7        43.166               
G16  26181210.468 6 137583238.314 6      3124.447 6        40.822               
G32  25079582.879 7 131794072.617 7      -508.313 7        46.082               
> 2024 12 27 02 45 53.0000000  0  5                                             
G29  27812483.492 7 146155494.132 7       193.518 7        43.960               
G31  25430480.993 6 133638010.959 6       172.365 6        41.105               
G28  25803701.412 7 135599380.771 7      -626.880 7        43.487               
G16  26180617.734 6 137580108.567 6      3133.048 6        41.164               
G32  25079682.159 7 131794582.620 7      -509.736 7        46.427               
> 2024 12 27 02 45 54.0000000  0  5                                             
G29  27812448.397 7 146155301.769 7       189.270 7        43.538               
G31  25430449.025 6 133637831.218 6       183.681 6        40.897               
G28  25803823.314 7 135600006.814 7      -626.644 7        43.606               
G16  26180024.090 6 137576979.195 6      3129.160 6        41.148               
G32  25079779.277 7 131795093.090 7      -511.389 7        46.620               
> 2024 12 27 02 45 55.0000000  0  5                                             
G29  27812409.371 7 146155109.891 7       193.667 7        43.539               
G31  25430405.032 6 133637651.640 6       174.132 6        41.104               
G28  25803941.625 7 135600632.905 7      -624.213 7        43.439               
G16  26179433.715 6 137573850.225 6      3125.263 6        41.203               
G32  25079877.432 7 131795604.017 7      -509.972 7        46.970               
> 2024 12 27 02 45 56.0000000  0  5                                             
G29  27812370.756 7 146154918.515 7       189.868 7        43.380               
G31  25430370.884 6 133637472.202 6       181.813 6        40.573               
G28  25804058.524 7 135601259.022 7      -622.213 7        43.163               
G16  26178835.907 7 137570721.639 7      3133.233 7        42.064               
G32  25079974.497 7 131796115.412 7      -514.073 7        46.902               
> 2024 12 27 02 45 57.0000000  0  5                                             
G29  27812323.921 7 146154727.635 7       191.458 7        42.720               
G31  25430336.915 6 133637292.855 6       176.614 6        40.367               
G28  25804177.175 7 135601885.185 7      -626.939 7        43.367               
G16  26178242.495 6 137567593.436 6      3126.566 6        41.880               
G32  25080070.525 7 131796627.246 7      -514.863 7        46.490               
> 2024 12 27 02 45 58.0000000  0  5                                             
G29  27812290.202 7 146154537.265 7       189.869 7        42.187               
G31  25430301.356 6 133637113.668 6       177.683 6        40.709               
G28  25804297.916 7 135602511.366 7      -626.180 7        43.021               
G16  26177646.348 6 137564465.614 6      3132.093 6        41.748               
G32  25080167.750 7 131797139.561 7      -510.678 7        46.228               
> 2024 12 27 02 45 59.0000000  0  5                                             
G29  27812248.514 6 146154347.408 6       192.403 6        41.873               
G31  25430266.029 6 133636934.623 6       174.204 6        40.572               
G28  25804418.817 7 135603137.610 7      -623.734 7        42.693               
G16  26177046.092 6 137561338.186 6      3123.565 6        41.923               
G32  25080265.905 7 131797652.333 7      -513.134 7        46.311               
> 2024 12 27 02 46 00.0000000  0  5                                             
G29  27812205.253 6 146154158.066 6       188.270 6        40.605               
G31  25430230.630 6 133636755.680 6       174.343 6        40.744               
G28  25804538.057 7 135603763.887 7      -625.865 7        42.759               
G16  26176452.519 7 137558211.144 7      3128.194 7        42.184               
G32  25080359.878 7 131798165.570 7      -513.042 7        46.692               
> 2024 12 27 02 46 01.0000000  0  5                                             
G29  27812167.460 6 146153969.221 6       183.588 6        40.776               
G31  25430198.519 6 133636576.902 6       182.115 6        40.867               
G28  25804657.726 7 135604390.200 7      -622.858 7        42.816               
G16  26175858.838 6 137555084.481 6      3129.960 6        41.420               
G32  25080455.763 7 131798679.284 7      -512.290 7        46.059               
> 2024 12 27 02 46 02.0000000  0  5                                             
G29  27812128.541 6 146153780.903 6       184.117 6        41.058               
G31  25430161.602 6 133636398.284 6       175.353 6        40.313               
G28  25804770.498 7 135605016.611 7      -624.495 7        42.677               
G16  26175265.265 6 137551958.252 6      3129.946 6        41.633               
G32  25080554.239 7 131799193.485 7      -512.087 7        46.228               
> 2024 12 27 02 46 03.0000000  0  5                                             
G29  27812092.589 6 146153593.068 6       193.251 6        40.578               
G31  25430132.207 6 133636219.790 6       172.304 6        40.154               
G28  25804894.384 7 135605643.023 7      -625.997 7        42.032               
G16  26174668.118 7 137548832.382 7      3123.817 7        42.211               
G32  25080652.787 7 131799708.133 7      -515.595 7        46.398               
> 2024 12 27 02 46 04.0000000  0  5                                             
G29  27812059.567 6 146153405.768 6       185.390 6        40.583               
G31  25430096.023 6 133636041.432 6       178.138 6        40.262               
G28  25805010.568 7 135606269.498 7      -628.536 7        42.014               
G16  26174069.720 6 137545706.925 6      3129.134 6        41.633               
G32  25080746.027 7 131800223.267 7      -513.788 7        45.858               
> 2024 12 27 02 46 05.0000000  0  5                                             
G29  27812030.208 6 146153218.951 6       188.516 6        41.157               
G31  25430062.304 6 133635863.212 6       183.206 6        40.753               
G28  25805129.933 7 135606895.999 7      -624.838 7        42.152               
G16  26173475.986 6 137542581.842 6      3130.416 6        41.515               
G32  25080846.273 7 131800738.865 7      -517.594 7        45.396               
> 2024 12 27 02 46 06.0000000  0  5                                             
G29  27811995.078 6 146153032.657 6       183.824 6        41.677               
G31  25430035.697 6 133635685.121 6       178.531 6        40.666               
G28  25805248.726 6 135607522.560 6      -620.483 6        41.514               
G16  26172878.607 6 137539457.154 6      3125.932 6        41.136               
G32  25080941.532 7 131801254.926 7      -515.153 7        45.699               
> 2024 12 27 02 46 07.0000000  0  5                                             
G29  27811968.060 7 146152846.815 7       184.019 7        42.166               
G31  25429996.564 6 133635507.145 6       181.098 6        41.081               
G28  25805361.283 6 135608149.137 6      -626.442 6        40.666               
G16  26172285.909 6 137536332.835 6      3124.837 6        41.679               
G32  25081038.758 7 131801771.428 7      -517.364 7        45.137               
> 2024 12 27 02 46 08.0000000  0  5                                             
G29  27811931.500 7 146152661.517 7       183.084 7        42.102               
G31  25429958.574 6 133635329.299 6       175.633 6        41.704               
G28  25805484.615 6 135608775.712 6      -622.039 6        40.863               
G16  26171694.909 7 137533208.864 7      3123.423 7        42.014               
G32  25081138.896 7 131802288.395 7      -517.759 7        46.024               
> 2024 12 27 02 46 09.0000000  0  5                                             
G29  27811898.603 6 146152476.674 6       189.584 6        41.945               
G31  25429927.000 6 133635151.604 6       171.231 6        41.152               
G28  25805602.533 6 135609402.377 6      -623.115 6        41.170               
G16  26171098.352 6 137530085.331 6      3120.948 6        41.347               
G32  25081236.979 7 131802805.823 7      -520.902 7        46.154               
> 2024 12 27 02 46 10.0000000  0  5                                             
G29  27811857.915 6 146152292.359 6       187.222 6        41.918               
G31  25429894.514 6 133634974.018 6       185.519 6        40.895               
G28  25805723.149 6 135610029.037 6      -626.296 6        40.313               
G16  26170500.294 6 137526962.158 6      3123.737 6        41.543               
G32  25081336.867 7 131803323.712 7      -516.524 7        46.417               
> 2024 12 27 02 46 11.0000000  0  5                                             
G29  27811829.843 6 146152108.522 6       186.383 6        41.967               
G31  25429855.613 6 133634796.558 6       176.984 6        41.455               
G28  25805842.782 6 135610655.758 6      -627.928 6        39.835               
G16  26169904.987 6 137523839.377 6      3118.412 6        41.173               
G32  25081437.362 7 131803842.058 7      -519.646 7        46.319               
> 2024 12 27 02 46 12.0000000  0  5                                             
G29  27811786.117 6 146151925.192 6       180.637 6        41.779               
G31  25429822.430 6 133634619.214 6       184.457 6        40.600               
G28  25805957.501 6 135611282.480 6      -627.080 6        39.744               
G16  26169302.372 6 137520716.957 6      3121.336 6        40.640               
G32  25081536.714 7 131804360.852 7      -515.021 7        46.574               
> 2024 12 27 02 46 13.0000000  0  5                                             
G29  27811759.439 7 146151742.341 7       182.639 7        42.525               
G31  25429787.675 6 133634441.995 6       164.154 6        40.671               
G28  25806078.081 6 135611909.251 6      -627.428 6        39.812               
G16  26168710.997 6 137517594.917 6      3125.081 6        40.863               
G32  25081638.710 7 131804880.112 7      -521.723 7        46.601               
> 2024 12 27 02 46 14.0000000  0  5                                             
G29  27811720.538 7 146151559.984 7       181.204 7        42.381               
G31  25429752.794 6 133634264.889 6       177.070 6        40.547               
G28  25806200.091 6 135612536.040 6      -619.854 6        39.859               
G16  26168114.386 6 137514473.275 6      3118.917 6        40.620               
G32  25081738.812 7 131805399.828 7      -520.136 7        46.398               
> 2024 12 27 02 46 15.0000000  0  5                                             
G29  27811685.443 7 146151378.142 7       182.505 7        42.147               
G31  25429718.450 6 133634087.931 6       177.167 6        39.926               
G28  25806312.916 6 135613162.902 6      -629.677 6        40.061               
G16  26167522.117 6 137511352.012 6      3126.562 6        40.564               
G32  25081837.271 7 131805919.992 7      -517.322 7        46.309               
> 2024 12 27 02 46 16.0000000  0  5                                             
G29  27811649.509 7 146151196.789 7       179.745 7        42.155               
G31  25429681.193 6 133633911.110 6       171.651 6        40.570               
G28  25806432.210 6 135613789.776 6      -629.946 6        39.699               
G16  26166933.208 6 137508231.160 6      3119.344 6        40.565               
G32  25081934.371 7 131806440.658 7      -518.061 7        46.670               
> 2024 12 27 02 46 17.0000000  0  5                                             
G29  27811624.814 7 146151015.994 7       175.407 7        42.163               
G31  25429651.406 6 133633734.435 6       181.428 6        40.067               
G28  25806552.236 6 135614416.723 6      -622.028 6        39.341               
G16  26166337.651 6 137505110.686 6      3125.022 6        40.965               
G32  25082034.348 7 131806961.783 7      -521.418 7        46.184               
> 2024 12 27 02 46 18.0000000  0  5                                             
G29  27811587.682 6 146150835.671 6       178.485 6        41.769               
G31  25429614.006 6 133633557.931 6       177.005 6        40.174               
G28  25806668.045 6 135615043.736 6      -626.098 6        39.055               
G16  26165743.917 6 137501990.620 6      3119.369 6        40.626               
G32  25082131.663 7 131807483.387 7      -523.168 7        46.389               
> 2024 12 27 02 46 19.0000000  0  5                                             
G29  27811553.266 6 146150655.850 6       182.182 6        41.275               
G31  25429583.128 6 133633381.533 6       181.064 6        40.154               
G28  25806787.857 6 135615670.740 6      -618.404 6        38.346               
G16  26165153.257 6 137498870.948 6      3122.497 6        40.902               
G32  25082232.533 7 131808005.443 7      -521.992 7        46.412               
> 2024 12 27 02 46 20.0000000  0  5                                             
G29  27811521.959 6 146150476.541 6       177.715 6        41.600               
G31  25429552.840 6 133633205.261 6       173.812 6        40.360               
G28  25806910.081 6 135616297.789 6      -628.551 6        38.328               
G16  26164560.684 6 137495751.639 6      3117.273 6        41.083               
G32  25082327.632 7 131808527.951 7      -521.372 7        46.510               
> 2024 12 27 02 46 21.0000000  0  5                                             
G29  27811482.380 6 146150297.713 6       179.106 6        41.704               
G31  25429519.121 6 133633029.134 6       178.539 6        40.920               
G28  25807022.638 6 135616924.889 6      -623.460 6        37.934               
G16  26163966.074 6 137492632.717 6      3120.051 6        41.422               
G32  25082427.574 7 131809050.933 7      -521.506 7        46.472               
> 2024 12 27 02 46 22.0000000  0  5                                             
G29  27811448.286 7 146150119.432 7       177.353 7        42.148               
G31  25429487.815 6 133632853.137 6       179.436 6        40.606               
G28  25807144.272 6 135617552.088 6      -632.430 6        38.123               
G16  26163378.273 6 137489514.222 6      3110.212 6        41.586               
G32  25082526.675 7 131809574.398 7      -524.645 7        46.327               
> 2024 12 27 02 46 23.0000000  0  5                                             
G29  27811407.097 6 146149941.650 6       174.337 6        41.743               
G31  25429451.719 6 133632677.271 6       176.123 6        39.873               
G28  25807259.313 6 135618179.246 6      -633.737 6        38.108               
G16  26162780.858 6 137486396.090 6      3118.331 6        41.342               
G32  25082628.457 7 131810098.331 7      -520.444 7        46.117               
> 2024 12 27 02 46 24.0000000  0  5                                             
G29  27811368.536 6 146149764.376 6       174.581 6        41.529               
G31  25429416.517 6 133632501.564 6       162.552 6        40.052               
G28  25807376.033 6 135618806.476 6      -627.846 6        37.810               
G16  26162185.802 6 137483278.362 6      3115.602 6        41.432               
G32  25082729.578 7 131810622.721 7      -525.632 7        46.444               
> 2024 12 27 02 46 25.0000000  0  5                                             
G29  27811332.512 6 146149587.600 6       178.259 6        41.319               
G31  25429381.673 6 133632325.962 6       177.124 6        39.841               
G28  25807501.867 6 135619433.734 6      -622.236 6        37.487               
G16  26161591.388 6 137480161.021 6      3118.138 6        41.406               
G32  25082830.127 7 131811147.597 7      -525.965 7        47.122               
> 2024 12 27 02 46 26.0000000  0  5                                             
G29  27811299.401 6 146149411.335 6       176.520 6        40.582               
G31  25429344.398 6 133632150.505 6       174.933 6        39.944               
G28  25807623.216 6 135620061.057 6      -633.191 6        38.392               
G16  26160996.993 6 137477044.057 6      3116.148 6        41.573               
G32  25082932.749 7 131811672.922 7      -523.885 7        47.029               
> 2024 12 27 02 46 27.0000000  0  5                                             
G29  27811263.270 6 146149235.568 6       175.553 6        40.334               
G31  25429315.575 6 133631975.183 6       177.934 6        40.328               
G28  25807739.007 6 135620688.412 6      -635.082 6        38.409               
G16  26160405.761 6 137473927.499 6      3116.548 6        41.889               
G32  25083032.690 7 131812198.724 7      -526.172 7        46.335               
> 2024 12 27 02 46 28.0000000  0  5                                             
G29  27811231.141 6 146149060.329 6       173.706 6        40.602               
G31  25429282.428 6 133631800.017 6       170.055 6        39.914               
G28  25807862.446 6 135621315.807 6      -626.725 6        38.364               
G16  26159810.990 6 137470811.347 6      3115.346 6        41.785               
G32  25083132.096 7 131812724.987 7      -525.200 7        46.617               
> 2024 12 27 02 46 29.0000000  0  5                                             
G29  27811201.586 6 146148885.585 6       174.720 6        40.585               
G31  25429246.440 6 133631624.955 6       175.394 6        40.100               
G28  25807986.493 6 135621943.257 6      -632.855 6        38.433               
G16  26159223.064 6 137467695.553 6      3119.441 6        41.516               
G32  25083228.124 7 131813251.711 7      -527.901 7        46.512               
> 2024 12 27 02 46 30.0000000  0  5                                             
G29  27811175.658 6 146148711.326 6       181.376 6        40.778               
G31  25429214.204 6 133631450.034 6       175.812 6        40.293               
G28  25808101.123 6 135622570.727 6      -626.939 6        38.664               
G16  26158627.847 7 137464580.172 7      3118.623 7        42.074               
G32  25083329.781 7 131813778.913 7      -525.949 7        46.482               
> 2024 12 27 02 46 31.0000000  0  5                                             
G29  27811146.245 6 146148537.598 6       172.843 6        41.360               
G31  25429188.777 6 133631275.248 6       180.974 6        40.575               
G28  25808219.809 6 135623198.242 6      -627.351 6        38.847               
G16  26158033.505 6 137461465.172 6      3113.551 6        41.881               
G32  25083429.115 7 131814306.571 7      -529.083 7        46.605               
> 2024 12 27 02 46 32.0000000  0  5                                             
G29  27811115.636 7 146148364.346 7       172.532 7        42.218               
G31  25429153.968 6 133631100.559 6       175.226 6        40.316               
G28  25808345.571 6 135623825.772 6      -627.688 6        38.829               
G16  26157441.665 6 137458350.540 6      3111.189 6        41.816               
G32  25083528.860 7 131814834.676 7      -526.818 7        45.947               
> 2024 12 27 02 46 33.0000000  0  5                                             
G29  27811089.422 7 146148191.587 7       174.081 7        42.660               
G31  25429119.105 6 133630925.996 6       171.959 6        39.943               
G28  25808468.885 6 135624453.330 6      -630.067 6        39.176               
G16  26156846.859 6 137455236.307 6      3114.136 6        41.655               
G32  25083626.871 7 131815363.231 7      -527.208 7        45.563               
> 2024 12 27 02 46 34.0000000  0  5                                             
G29  27811054.059 7 146148019.308 7       173.464 7        42.738               
G31  25429083.957 6 133630751.583 6       168.857 6        40.041               
G28  25808584.569 6 135625080.907 6      -619.598 6        38.856               
G16  26156254.215 6 137452122.427 6      3114.923 6        41.797               
G32  25083727.099 7 131815892.252 7      -530.823 7        45.925               
> 2024 12 27 02 46 35.0000000  0  5                                             
G29  27811019.500 7 146147847.556 7       175.075 7        42.865               
G31  25429052.204 6 133630577.285 6       172.738 6        39.582               
G28  25808709.063 6 135625708.549 6      -632.692 6        39.536               
G16  26155665.752 6 137449008.963 6      3117.991 6        41.737               
G32  25083824.324 7 131816421.744 7      -529.525 7        45.715               
> 2024 12 27 02 46 36.0000000  0  5                                             
G29  27810987.354 7 146147676.300 7       170.786 7        43.102               
G31  25429012.016 6 133630403.130 6       172.554 6        38.574               
G28  25808828.839 6 135626336.228 6      -632.705 6        39.913               
G16  26155070.911 6 137445895.884 6      3113.165 6        41.837               
G32  25083923.426 7 131816951.698 7      -527.050 7        45.074               
> 2024 12 27 02 46 37.0000000  0  5                                             
G29  27810958.388 7 146147505.548 7       169.058 7        43.266               
G31  25428981.103 6 133630229.042 6       179.226 6        38.331               
G28  25808949.401 6 135626963.933 6      -632.436 6        40.416               
G16  26154484.932 6 137442783.191 6      3114.472 6        41.207               
G32  25084025.690 7 131817482.112 7      -529.192 7        44.835               
> 2024 12 27 02 46 38.0000000  0  5                                             
G29  27810921.668 7 146147335.300 7       169.070 7        42.770               
G31  25428953.245 6 133630055.171 6       180.478 6        38.271               
G28  25809066.711 6 135627591.665 6      -628.891 6        39.967               
G16  26153888.821 6 137439670.893 6      3109.555 6        41.360               
G32  25084131.975 7 131818012.996 7      -533.761 7        45.071               
> 2024 12 27 02 46 39.0000000  0  5                                             
G29  27810886.162 7 146147165.578 7       170.778 7        42.418               
G31  25428917.060 6 133629881.398 6       166.768 6        38.177               
G28  25809183.092 6 135628219.449 6      -630.065 6        39.875               
G16  26153298.911 6 137436558.962 6      3114.176 6        41.395               
G32  25084233.453 7 131818544.342 7      -529.702 7        44.708               
> 2024 12 27 02 46 40.0000000  0  5                                             
G29  27810852.068 6 146146996.322 6       171.169 6        41.913               
G31  25428885.075 6 133629707.718 6       177.848 6        38.526               
G28  25809301.796 6 135628847.277 6      -625.704 6        39.723               
G16  26152709.269 7 137433447.435 7      3113.035 7        42.128               
G32  25084333.198 7 131819076.135 7      -528.453 7        44.775               
> 2024 12 27 02 46 41.0000000  0  5                                             
G29  27810815.901 6 146146827.580 6       167.258 6        41.482               
G31  25428847.228 6 133629534.164 6       174.972 6        38.496               
G28  25809424.342 6 135629475.109 6      -623.233 6        40.188               
G16  26152115.249 7 137430336.281 7      3111.579 7        42.262               
G32  25084436.302 7 131819608.400 7      -531.455 7        44.877               
> 2024 12 27 02 46 42.0000000  0  5                                             
G29  27810784.237 6 146146659.369 6       168.075 6        41.384               
G31  25428819.102 6 133629360.789 6       175.021 6        38.598               
G28  25809544.636 6 135630103.013 6      -627.488 6        40.766               
G16  26151523.070 7 137427225.543 7      3108.649 7        42.250               
G32  25084537.155 7 131820141.149 7      -534.300 7        45.795               
> 2024 12 27 02 46 43.0000000  0  5                                             
G29  27810747.891 6 146146491.638 6       170.689 6        41.584               
G31  25428780.988 6 133629187.524 6       174.679 6        38.454               
G28  25809663.125 6 135630730.947 6      -626.464 6        40.678               
G16  26150933.517 7 137424115.167 7      3110.957 7        42.125               
G32  25084643.833 7 131820674.350 7      -533.198 7        45.882               
> 2024 12 27 02 46 44.0000000  0  5                                             
G29  27810719.676 6 146146324.407 6       172.165 6        41.664               
G31  25428750.646 6 133629014.367 6       169.896 6        39.132               
G28  25809782.705 6 135631358.886 6      -628.371 6        40.790               
G16  26150339.479 7 137421005.197 7      3115.659 7        42.279               
G32  25084745.258 7 131821208.000 7      -532.102 7        45.611               
> 2024 12 27 02 46 45.0000000  0  5                                             
G29  27810688.906 6 146146157.682 6       166.564 6        41.539               
G31  25428722.878 6 133628841.367 6       166.998 6        39.143               
G28  25809908.610 6 135631986.882 6      -630.329 6        40.832               
G16  26149748.890 7 137417895.602 7      3109.499 7        42.594               
G32  25084843.930 7 131821742.117 7      -533.593 7        45.391               
> 2024 12 27 02 46 46.0000000  0  5                                             
G29  27810658.600 6 146145991.461 6       165.344 6        41.776               
G31  25428688.122 6 133628668.481 6       180.034 6        38.755               
G28  25810024.330 6 135632614.923 6      -630.691 6        40.972               
G16  26149154.120 7 137414786.391 7      3110.565 7        42.411               
G32  25084945.194 7 131822276.722 7      -534.095 7        45.602               
> 2024 12 27 02 46 47.0000000  0  5                                             
G29  27810629.009 7 146145825.730 7       163.988 7        42.048               
G31  25428655.440 6 133628495.724 6       176.008 6        38.312               
G28  25810145.607 6 135633242.995 6      -626.079 6        41.154               
G16  26148564.067 7 137411677.572 7      3107.873 7        42.792               
G32  25085049.013 7 131822811.766 7      -534.377 7        45.517               
> 2024 12 27 02 46 48.0000000  0  5                                             
G29  27810599.507 6 146145660.525 6       163.644 6        41.968               
G31  25428614.859 6 133628323.082 6       176.818 6        38.105               
G28  25810261.470 6 135633871.105 6      -624.241 6        40.469               
G16  26147968.063 7 137408569.170 7      3108.280 7        42.113               
G32  25085149.759 7 131823347.280 7      -535.732 7        45.345               
> 2024 12 27 02 46 49.0000000  0  5                                             
G29  27810569.701 7 146145495.790 7       162.011 7        42.216               
G31  25428590.790 6 133628150.615 6       175.621 6        38.974               
G28  25810384.677 6 135634499.240 6      -629.095 6        40.474               
G16  26147381.084 7 137405461.131 7      3105.581 7        42.358               
G32  25085251.541 7 131823883.267 7      -541.773 7        45.519               
> 2024 12 27 02 46 50.0000000  0  5                                             
G29  27810539.020 7 146145331.567 7       163.818 7        43.055               
G31  25428555.552 6 133627978.255 6       171.526 6        38.770               
G28  25810505.650 6 135635127.429 6      -631.637 6        40.896               
G16  26146784.437 7 137402353.474 7      3115.066 7        42.631               
G32  25085351.571 7 131824419.694 7      -534.607 7        45.308               
> 2024 12 27 02 46 51.0000000  0  5                                             
G29  27810507.749 7 146145167.835 7       163.395 7        42.611               
G31  25428521.851 6 133627806.016 6       173.360 6        38.370               
G28  25810624.443 6 135635755.641 6      -634.714 6        40.820               
G16  26146196.421 6 137399246.216 6      3103.530 6        41.641               
G32  25085451.138 7 131824956.583 7      -534.520 7        45.305               
> 2024 12 27 02 46 52.0000000  0  5                                             
G29  27810471.100 7 146145004.604 7       163.477 7        42.608               
G31  25428490.312 6 133627633.914 6       187.959 6        38.601               
G28  25810746.649 6 135636383.879 6      -629.209 6        40.806               
G16  26145604.528 7 137396139.329 7      3101.015 7        42.472               
G32  25085555.171 7 131825493.927 7      -538.982 7        45.106               
> 2024 12 27 02 46 53.0000000  0  5                                             
G29  27810436.381 7 146144841.855 7       158.879 7        42.482               
G31  25428465.206 6 133627461.888 6       162.098 6        38.686               
G28  25810870.214 6 135637012.131 6      -624.485 6        40.552               
G16  26145013.188 7 137393032.804 7      3106.509 7        42.812               
G32  25085656.363 7 131826031.724 7      -536.690 7        45.219               
> 2024 12 27 02 46 54.0000000  0  5                                             
G29  27810408.755 7 146144679.620 7       167.939 7        42.327               
G31  25428428.325 6 133627290.011 6       160.005 6        38.812               
G28  25810985.773 6 135637640.457 6      -633.616 6        40.157               
G16  26144425.476 7 137389926.713 7      3104.346 7        42.967               
G32  25085761.415 7 131826570.006 7      -540.069 7        45.084               
> 2024 12 27 02 46 55.0000000  0  5                                             
G29  27810376.323 7 146144517.900 7       163.167 7        42.620               
G31  25428392.050 6 133627118.270 6       171.894 6        38.872               
G28  25811101.671 6 135638268.817 6      -629.185 6        40.101               
G16  26143834.154 7 137386821.005 7      3106.621 7        42.630               
G32  25085863.215 7 131827108.748 7      -537.394 7        44.545               
> 2024 12 27 02 46 56.0000000  0  5                                             
G29  27810350.931 7 146144356.676 7       165.084 7        42.322               
G31  25428370.822 6 133626946.662 6       169.467 6        38.434               
G28  25811223.198 6 135638897.165 6      -630.840 6        39.895               
G16  26143243.601 7 137383715.666 7      3109.507 7        42.794               
G32  25085962.728 7 131827647.956 7      -540.204 7        44.675               
> 2024 12 27 02 46 57.0000000  0  5                                             
G29  27810323.681 7 146144195.960 7       163.511 7        42.509               
G31  25428331.153 6 133626775.203 6       173.578 6        38.539               
G28  25811337.310 6 135639525.607 6      -630.367 6        39.897               
G16  26142657.175 7 137380610.750 7      3104.003 7        42.882               
G32  25086070.549 7 131828187.618 7      -537.804 7        45.209               
> 2024 12 27 02 46 58.0000000  0  5                                             
G29  27810295.966 7 146144035.752 7       159.966 7        43.149               
G31  25428303.956 6 133626603.853 6       172.467 6        38.974               
G28  25811457.819 6 135640154.066 6      -628.360 6        39.466               
G16  26142063.727 7 137377506.225 7      3101.502 7        43.105               
G32  25086171.366 7 131828727.748 7      -535.269 7        45.477               
> 2024 12 27 02 46 59.0000000  0  5                                             
G29  27810268.912 7 146143876.049 7       160.568 7        43.224               
G31  25428271.435 6 133626432.667 6       165.956 6        39.072               
G28  25811580.579 6 135640782.566 6      -630.073 6        39.133               
G16  26141477.248 7 137374402.064 7      3104.285 7        42.799               
G32  25086276.115 7 131829268.362 7      -537.590 7        45.758               
> 2024 12 27 02 47 00.0000000  0  5                                             
G29  27810235.283 7 146143716.827 7       158.120 7        43.668               
G31  25428237.430 6 133626261.573 6       179.727 6        38.329               
G28  25811698.729 6 135641411.114 6      -627.436 6        39.418               
G16  26140880.440 7 137371298.298 7      3101.110 7        42.632               
G32  25086380.774 7 131829809.420 7      -544.340 7        45.717               
> 2024 12 27 02 47 01.0000000  0  5                                             
G29  27810208.372 7 146143558.109 7       158.754 7        43.229               
G31  25428205.194 6 133626090.616 6       168.498 6        38.589               
G28  25811823.026 6 135642039.659 6      -627.068 6        38.781               
G16  26140294.604 7 137368194.924 7      3102.858 7        42.482               
G32  25086484.485 7 131830350.934 7      -542.910 7        45.789               
> 2024 12 27 02 47 02.0000000  0  5                                             
G29  27810175.832 7 146143399.892 7       158.743 7        43.614               
G31  25428174.441 6 133625919.804 6       163.806 6        38.912               
G28  25811938.603 6 135642668.273 6      -628.123 6        38.381               
G16  26139702.675 7 137365091.927 7      3101.069 7        42.344               
G32  25086587.911 7 131830892.922 7      -545.486 7        46.311               
> 2024 12 27 02 47 03.0000000  0  5                                             
G29  27810141.988 7 146143242.184 7       156.924 7        43.855               
G31  25428148.889 6 133625749.089 6       170.857 6        38.941               
G28  25812058.450 6 135643296.917 6      -624.300 6        38.285               
G16  26139108.441 7 137361989.334 7      3100.581 7        43.009               
G32  25086689.425 7 131831435.381 7      -544.787 7        46.550               
> 2024 12 27 02 47 04.0000000  0  5                                             
G29  27810114.506 7 146143084.978 7       157.238 7        43.334               
G31  25428104.967 6 133625578.540 6       168.779 6        39.065               
G28  25812179.513 6 135643925.595 6      -627.875 6        38.405               
G16  26138516.869 7 137358887.157 7      3102.561 7        42.393               
G32  25086793.173 7 131831978.303 7      -541.774 7        46.196               
> 2024 12 27 02 47 05.0000000  0  5                                             
G29  27810077.588 7 146142928.292 7       154.833 7        43.817               
G31  25428085.096 6 133625408.108 6       176.028 6        38.713               
G28  25812302.184 6 135644554.327 6      -633.495 6        38.231               
G16  26137925.940 7 137355785.342 7      3107.141 7        42.225               
G32  25086896.992 7 131832521.712 7      -539.869 7        45.589               
> 2024 12 27 02 47 06.0000000  0  5                                             
G29  27810046.961 7 146142772.135 7       155.018 7        42.226               
G31  25428048.411 6 133625237.842 6       169.998 6        39.143               
G28  25812416.706 6 135645183.096 6      -629.741 6        38.419               
G16  26137340.301 7 137352683.952 7      3100.743 7        42.086               
G32  25086998.577 7 131833065.581 7      -544.832 7        45.685               
> 2024 12 27 02 47 07.0000000  0  5                                             
G29  27810010.526 7 146142616.450 7       154.251 7        42.194               
G31  25428022.019 6 133625067.650 6       164.230 6        38.234               
G28  25812543.505 6 135645811.918 6      -624.182 6        38.482               
G16  26136747.979 7 137349582.932 7      3101.484 7        42.382               
G32  25087100.985 7 131833609.912 7      -544.117 7        45.723               
> 2024 12 27 02 47 08.0000000  0  5                                             
G29  27809981.614 6 146142461.299 6       151.823 6        41.472               
G31  25427991.284 6 133624897.635 6       168.466 6        38.955               
G28  25812662.084 6 135646440.785 6      -623.640 6        38.462               
G16  26136165.306 6 137346482.339 6      3099.433 6        41.714               
G32  25087206.269 7 131834154.724 7      -546.237 7        45.801               
> 2024 12 27 02 47 09.0000000  0  5                                             
G29  27809950.397 6 146142306.635 6       150.299 6        41.778               
G31  25427949.256 6 133624727.734 6       179.362 6        39.160               
G28  25812782.932 6 135647069.665 6      -624.312 6        38.895               
G16  26135572.661 6 137343382.118 6      3097.812 6        41.954               
G32  25087304.566 7 131834699.979 7      -546.226 7        44.886               
> 2024 12 27 02 47 11.0000000  0  5                                             
G29  27809894.181 6 146141998.839 6       148.391 6        41.377               
G31  25427889.967 6 133624388.316 6       171.631 6        38.110               
G28  25813019.750 6 135648327.546 6      -637.309 6        38.938               
G16  26134393.771 7 137337182.832 7      3098.921 7        42.108               
G32  25087510.417 7 131835791.898 7      -551.091 7        44.964               
> 2024 12 27 02 47 12.0000000  0  5                                             
G29  27809870.862 6 146141845.713 6       158.527 6        41.553               
G31  25427856.945 6 133624218.805 6       180.572 6        37.380               
G28  25813138.722 6 135648956.545 6      -630.108 6        39.824               
G16  26133803.807 7 137334083.791 7      3098.614 7        42.042               
G32  25087617.560 7 131836338.561 7      -548.667 7        44.649               
> 2024 12 27 02 47 13.0000000  0  5                                             
G29  27809839.698 6 146141693.075 6       148.172 6        41.985               
G31  25427821.099 6 133624049.423 6       176.740 6        36.954               
G28  25813257.551 6 135649585.554 6      -627.169 6        39.609               
G16  26133214.612 7 137330985.124 7      3100.537 7        42.187               
G32  25087719.306 7 131836885.673 7      -544.028 7        44.654               
> 2024 12 27 02 47 14.0000000  0  5                                             
G29  27809824.045 6 146141540.922 6       153.947 6        41.973               
G31  25427786.916 6 133623880.174 6       159.627 6        36.830               
G28  25813380.061 6 135650214.622 6      -625.441 6        39.414               
G16  26132624.362 7 137327886.860 7      3097.541 7        42.260               
G32  25087824.966 7 131837433.246 7      -547.857 7        45.187               
> 2024 12 27 02 47 15.0000000  0  5                                             
G29  27809795.562 7 146141389.295 7       149.503 7        42.258               
G31  25427758.790 6 133623711.007 6       176.667 6        36.546               
G28  25813494.834 6 135650843.744 6      -638.453 6        39.762               
G16  26132035.381 6 137324788.955 6      3099.571 6        41.557               
G32  25087932.805 7 131837981.290 7      -549.914 7        44.885               
> 2024 12 27 02 47 16.0000000  0  5                                             
G29  27809767.007 7 146141238.135 7       149.612 7        42.882               
G31  25427721.926 6 133623542.025 6       170.997 6        36.616               
G28  25813618.880 6 135651472.849 6      -629.812 6        39.453               
G16  26131443.220 6 137321691.447 6      3099.258 6        41.508               
G32  25088038.787 7 131838529.778 7      -546.956 7        45.117               
> 2024 12 27 02 47 17.0000000  0  5                                             
G29  27809743.063 7 146141087.476 7       149.797 7        43.116               
G31  25427688.529 6 133623373.114 6       178.077 6        36.704               
G28  25813740.747 6 135652102.009 6      -627.827 6        39.199               
G16  26130855.347 7 137318594.339 7      3096.737 7        42.153               
G32  25088145.357 7 131839078.751 7      -549.875 7        45.149               
> 2024 12 27 02 47 18.0000000  0  5                                             
G29  27809713.775 7 146140937.343 7       151.169 7        43.284               
G31  25427656.472 6 133623204.393 6       169.333 6        37.140               
G28  25813858.111 6 135652731.215 6      -630.666 6        39.313               
G16  26130265.186 6 137315497.637 6      3091.699 6        41.535               
G32  25088250.284 7 131839628.198 7      -546.757 7        45.479               
> 2024 12 27 02 47 19.0000000  0  5                                             
G29  27809684.506 7 146140787.735 7       147.591 7        43.611               
G31  25427625.702 6 133623035.819 6       176.152 6        36.417               
G28  25813979.906 6 135653360.475 6      -625.478 6        40.183               
G16  26129677.474 6 137312401.333 6      3096.946 6        41.178               
G32  25088357.981 7 131840178.129 7      -551.814 7        45.618               
> 2024 12 27 02 47 20.0000000  0  5                                             
G29  27809652.931 7 146140638.602 7       148.578 7        43.397               
G31  25427589.267 6 133622867.324 6       169.989 6        36.261               
G28  25814101.040 6 135653989.773 6      -630.553 6        40.483               
G16  26129082.883 6 137309305.405 6      3097.592 6        41.213               
G32  25088462.818 7 131840728.498 7      -547.539 7        45.615               
> 2024 12 27 02 47 21.0000000  0  5                                             
G29  27809622.161 7 146140489.952 7       147.152 7        43.438               
G31  25427568.985 6 133622698.971 6       170.385 6        36.197               
G28  25814221.888 6 135654619.044 6      -632.200 6        40.500               
G16  26128497.672 6 137306209.846 6      3095.875 6        40.917               
G32  25088567.495 7 131841279.316 7      -550.808 7        45.127               
> 2024 12 27 02 47 22.0000000  0  5                                             
G29  27809594.517 7 146140341.836 7       147.563 7        43.059               
G31  25427531.854 6 133622530.730 6       171.871 6        36.682               
G28  25814334.034 6 135655248.387 6      -628.409 6        39.948               
G16  26127907.190 6 137303114.696 6      3095.493 6        40.825               
G32  25088673.870 7 131841830.621 7      -552.810 7        46.083               
> 2024 12 27 02 47 23.0000000  0  5                                             
G29  27809558.386 7 146140194.199 7       151.841 7        42.990               
G31  25427499.100 6 133622362.627 6       160.389 6        37.482               
G28  25814452.560 6 135655877.736 6      -629.759 6        40.575               
G16  26127318.102 6 137300019.924 6      3095.664 6        41.257               
G32  25088778.511 7 131842382.356 7      -553.664 7        46.255               
> 2024 12 27 02 47 24.0000000  0  5                                             
G29  27809531.869 7 146140047.071 7       145.500 7        42.858               
G31  25427458.465 6 133622194.631 6       171.018 6        37.759               
G28  25814575.463 6 135656507.137 6      -633.515 6        40.211               
G16  26126729.657 6 137296925.556 6      3092.506 6        40.956               
G32  25088883.330 7 131842934.568 7      -554.062 7        45.507               
> 2024 12 27 02 47 25.0000000  0  6                                             
G26  24336234.919 6 127887749.201 6       959.555 6        37.644               
G29  27809499.597 7 146139900.427 7       148.828 7        42.553               
G31  25427425.586 6 133622026.769 6       160.550 6        37.250               
G28  25814694.596 6 135657136.561 6      -628.608 6        40.734               
G16  26126139.533 6 137293831.557 6      3100.651 6        40.403               
G32  25088984.094 7 131843487.212 7      -552.635 7        45.272               
> 2024 12 27 02 47 26.0000000  0  6                                             
G26  24336051.636 6 127886794.697 6       958.456 6        36.712               
G29  27809466.253 7 146139754.307 7       148.073 7        42.464               
G31  25427391.760 6 133621859.046 6       177.539 6        36.955               
G28  25814809.940 6 135657766.022 6      -631.345 6        40.543               
G16  26125550.320 6 137290737.977 6      3095.243 6        40.360               
G32  25089091.308 7 131844040.348 7      -554.311 7        45.369               
> 2024 12 27 02 47 27.0000000  0  6                                             
G26  24335870.659 6 127885840.786 6       941.808 6        36.768               
G29  27809438.396 6 146139608.694 6       146.320 6        41.721               
G31  25427359.846 6 133621691.433 6       166.710 6        37.079               
G28  25814932.093 6 135658395.542 6      -624.721 6        40.088               
G16  26124962.286 6 137287644.774 6      3089.637 6        40.473               
G32  25089195.091 7 131844593.955 7      -554.839 7        45.187               
> 2024 12 27 02 47 28.0000000  0  6                                             
G26  24335683.927 5 127884887.465 5       943.023 5        35.715               
G29  27809408.000 6 146139463.605 6       145.676 6        41.869               
G31  25427333.096 6 133621523.987 6       167.766 6        37.023               
G28  25815050.707 6 135659025.102 6      -628.594 6        40.454               
G16  26124373.394 6 137284551.989 6      3087.229 6        40.680               
G32  25089302.931 7 131845148.050 7      -554.557 7        45.490               
> 2024 12 27 02 47 29.0000000  0  6                                             
G26  24335499.162 5 127883934.744 5       953.332 5        35.490               
G29  27809386.468 6 146139319.066 6       145.741 6        41.719               
G31  25427298.538 6 133621356.685 6       161.561 6        36.951               
G28  25815168.321 6 135659654.730 6      -627.661 6        40.109               
G16  26123781.054 6 137281459.617 6      3095.559 6        40.797               
G32  25089407.697 7 131845702.638 7      -554.414 7        45.111               
> 2024 12 27 02 47 30.0000000  0  6                                             
G26  24335318.452 5 127882982.632 5       948.346 5        35.788               
G29  27809363.042 7 146139174.995 7       143.999 7        42.323               
G31  25427272.592 6 133621189.463 6       188.387 6        37.276               
G28  25815283.219 6 135660284.379 6      -624.794 6        40.328               
G16  26123188.142 6 137278367.625 6      3095.124 6        40.134               
G32  25089516.037 7 131846257.661 7      -557.208 7        45.685               
> 2024 12 27 02 47 31.0000000  0  6                                             
G26  24335133.615 5 127882030.976 5       959.872 5        35.631               
G29  27809335.345 7 146139031.441 7       143.770 7        42.414               
G31  25427235.764 6 133621022.431 6       161.236 6        37.304               
G28  25815406.533 6 135660914.050 6      -625.701 6        40.372               
G16  26122605.237 6 137275276.046 6      3090.174 6        40.768               
G32  25089620.374 7 131846813.161 7      -556.654 7        45.526               
> 2024 12 27 02 47 33.0000000  0  6                                             
G26  24334786.831 5 127880129.712 5       944.395 5        34.325               
G29  27809284.222 7 146138745.838 7       141.843 7        42.746               
G31  25427179.369 6 133620688.721 6       168.125 6        39.280               
G28  25815644.459 6 135662173.568 6      -621.215 6        39.689               
G16  26121428.222 6 137269094.066 6      3092.124 6        40.950               
G32  25089832.050 7 131847925.587 7      -556.700 7        45.970               
> 2024 12 27 02 47 34.0000000  0  6                                             
G26  24334603.209 5 127879179.867 5       966.954 5        34.374               
G29  27809252.397 7 146138603.823 7       139.573 7        43.034               
G31  25427145.543 6 133620522.071 6       166.849 6        39.489               
G28  25815766.969 6 135662803.398 6      -637.227 6        40.473               
G16  26120837.615 6 137266003.675 6      3087.958 6        41.153               
G32  25089936.548 7 131848482.506 7      -558.192 7        45.341               
> 2024 12 27 02 47 35.0000000  0  5                                             
G29  27809233.706 7 146138462.310 7       142.068 7        43.123               
G31  25427109.162 6 133620355.568 6       166.798 6        39.433               
G28  25815880.330 6 135663433.263 6      -626.885 6        39.319               
G16  26120253.298 6 137262913.675 6      3088.821 6        40.986               
G32  25090041.600 7 131849039.912 7      -560.008 7        45.552               
> 2024 12 27 02 47 36.0000000  0  5                                             
G29  27809207.528 7 146138321.324 7       139.021 7        42.820               
G31  25427079.195 6 133620189.190 6       166.860 6        39.990               
G28  25816000.785 6 135664063.171 6      -631.959 6        39.793               
G16  26119666.426 6 137259824.094 6      3089.982 6        41.566               
G32  25090143.954 7 131849597.799 7      -557.570 7        45.221               
> 2024 12 27 02 47 37.0000000  0  5                                             
G29  27809177.830 7 146138180.836 7       139.285 7        42.541               
G31  25427050.248 6 133620022.930 6       168.380 6        40.010               
G28  25816116.452 6 135664693.128 6      -629.815 6        39.498               
G16  26119083.324 7 137256734.919 7      3091.717 7        42.060               
G32  25090254.295 7 131850156.148 7      -559.917 7        45.244               
> 2024 12 27 02 47 38.0000000  0  5                                             
G29  27809153.867 7 146138040.840 7       135.747 7        43.178               
G31  25427019.102 6 133619856.843 6       160.553 6        39.632               
G28  25816236.192 6 135665323.135 6      -632.580 6        38.611               
G16  26118490.698 6 137253646.132 6      3087.649 6        41.456               
G32  25090358.597 7 131850714.952 7      -561.041 7        45.368               
> 2024 12 27 02 47 39.0000000  0  5                                             
G29  27809130.119 7 146137901.364 7       140.763 7        43.075               
G31  25426986.437 6 133619690.847 6       168.805 6        39.999               
G28  25816363.419 6 135665953.155 6      -629.622 6        39.079               
G16  26117905.684 6 137250557.710 6      3083.690 6        41.591               
G32  25090465.436 7 131851274.223 7      -559.037 7        45.493               
> 2024 12 27 02 47 40.0000000  0  5                                             
G29  27809102.780 7 146137762.388 7       141.479 7        43.661               
G31  25426953.165 6 133619524.989 6       166.485 6        39.429               
G28  25816476.691 6 135666583.244 6      -633.296 6        38.756               
G16  26117322.474 6 137247469.720 6      3087.296 6        41.771               
G32  25090573.329 7 131851833.980 7      -560.271 7        45.318               
> 2024 12 27 02 47 41.0000000  0  5                                             
G29  27809077.924 7 146137623.924 7       139.804 7        44.105               
G31  25426925.343 6 133619359.250 6       165.007 6        39.829               
G28  25816599.148 6 135667213.308 6      -628.879 6        38.358               
G16  26116731.993 7 137244382.090 7      3088.282 7        42.086               
G32  25090679.131 7 131852394.183 7      -558.328 7        45.698               
> 2024 12 27 02 47 49.0000000  0  5                                             
G29  27808857.349 6 146136534.039 6       137.537 6        41.572               
G31  25426675.499 6 133618037.616 6       169.371 6        41.311               
G28  25817562.038 6 135672255.111 6      -627.260 6        37.384               
G16  26112030.438 6 137219695.024 6      3088.362 6        40.137               
G32  25091529.965 7 131856892.310 7      -564.982 7        44.864               
> 2024 12 27 02 47 51.0000000  0  5                                             
G29  27808802.258 6 146136266.673 6       131.485 6        40.567               
G31  25426613.046 6 133617708.558 6       161.161 6        40.820               
G28  25817792.637 6 135673515.934 6      -618.536 6        37.381               
G16  26110851.619 6 137213527.245 6      3082.538 6        39.184               
G32  25091742.106 7 131858021.513 7      -565.515 7        44.138               
> 2024 12 27 02 47 52.0000000  0  5                                             
G29  27808777.117 6 146136133.698 6       131.033 6        40.725               
G31  25426581.615 6 133617544.163 6       164.087 6        40.859               
G28  25817917.667 6 135674146.373 6      -620.604 6        37.410               
G16  26110257.188 6 137210443.898 6      3079.512 6        39.018               
G32  25091849.713 7 131858586.785 7      -568.179 7        44.544               
> 2024 12 27 02 47 53.0000000  0  5                                             
G29  27808752.672 6 146136001.254 6       130.749 6        41.513               
G31  25426546.002 6 133617379.889 6       161.125 6        41.081               
G28  25818033.405 6 135674776.838 6      -638.157 6        37.726               
G16  26109667.278 6 137207360.954 6      3082.825 6        38.478               
G32  25091958.518 7 131859152.513 7      -565.358 7        44.480               
> 2024 12 27 02 48 03.0000000  0  5                                             
G29  27808525.128 7 146134798.813 7       127.530 7        43.350               
G31  25426238.494 6 133615784.803 6       162.074 6        40.697               
G28  25819239.528 6 135681002.967 6      -625.613 6        38.338               
G16  26103812.510 6 137176553.664 6      3079.382 6        38.871               
G32  25093038.557 7 131864808.946 7      -568.228 7        44.064               
> 2024 12 27 02 48 04.0000000  0  5                                             
G29  27808502.452 7 146134672.007 7       124.991 7        43.203               
G31  25426207.580 6 133615622.039 6       162.687 6        40.444               
G28  25819360.037 6 135681633.934 6      -624.413 6        38.459               
G16  26103226.496 6 137173475.174 6      3075.255 6        39.511               
G32  25093143.931 7 131865379.908 7      -571.243 7        44.290               
> 2024 12 27 02 48 05.0000000  0  5                                             
G29  27808479.776 7 146134545.682 7       130.314 7        43.152               
G31  25426179.955 6 133615459.391 6       165.678 6        40.550               
G28  25819479.098 6 135682264.939 6      -631.220 6        38.883               
G16  26102644.662 6 137170397.065 6      3083.988 6        39.667               
G32  25093254.415 7 131865951.329 7      -574.802 7        43.831               
> 2024 12 27 02 48 06.0000000  0  5                                             
G29  27808455.671 7 146134419.871 7       130.656 7        42.964               
G31  25426150.578 6 133615296.874 6       160.128 6        40.890               
G28  25819601.697 6 135682895.956 6      -641.974 6        39.850               
G16  26102056.593 6 137167319.331 6      3075.132 6        39.932               
G32  25093361.361 7 131866523.219 7      -572.765 7        43.338               
> 2024 12 27 02 48 07.0000000  0  5                                             
G29  27808423.650 7 146134294.605 7       127.076 7        42.196               
G31  25426121.023 6 133615134.532 6       162.208 6        40.994               
G28  25819725.798 6 135683527.054 6      -632.321 6        40.613               
G16  26101474.206 6 137164242.053 6      3081.080 6        39.807               
G32  25093473.793 7 131867095.594 7      -572.001 7        43.920               
> 2024 12 27 02 48 08.0000000  0  5                                             
G29  27808398.419 6 146134169.866 6       128.172 6        41.711               
G31  25426092.986 6 133614972.322 6       159.832 6        41.702               
G28  25819848.915 6 135684158.197 6      -631.528 6        40.229               
G16  26100888.012 6 137161165.152 6      3077.126 6        40.393               
G32  25093579.363 7 131867668.465 7      -574.177 7        44.118               
> 2024 12 27 02 48 09.0000000  0  5                                             
G29  27808365.021 6 146134045.628 6       123.390 6        41.516               
G31  25426067.112 6 133614810.222 6       160.021 6        41.904               
G28  25819966.476 6 135684789.360 6      -631.037 6        40.317               
G16  26100301.962 6 137158088.645 6      3074.288 6        40.100               
G32  25093695.708 7 131868241.786 7      -572.706 7        44.027               
> 2024 12 27 02 48 10.0000000  0  5                                             
G29  27808341.738 6 146133921.877 6       122.615 6        41.662               
G31  25426034.680 7 133614648.267 7       162.018 7        42.440               
G28  25820090.379 6 135685420.577 6      -631.669 6        41.212               
G16  26099723.667 6 137155012.573 6      3078.490 6        39.712               
G32  25093802.744 7 131868815.585 7      -579.352 7        44.639               
> 2024 12 27 02 48 11.0000000  0  5                                             
G29  27808314.988 6 146133798.642 6       130.208 6        40.900               
G31  25426006.036 7 133614486.416 7       159.705 7        42.565               
G28  25820214.569 6 135686051.809 6      -630.860 6        41.677               
G16  26099133.989 6 137151936.843 6      3078.936 6        39.484               
G32  25093915.694 7 131869389.812 7      -570.617 7        44.198               
> 2024 12 27 02 48 12.0000000  0  5                                             
G29  27808290.793 6 146133675.876 6       126.951 6        40.507               
G31  25425979.911 6 133614324.674 6       161.585 6        41.879               
G28  25820334.095 6 135686683.041 6      -633.581 6        41.005               
G16  26098553.192 6 137148861.511 6      3066.774 6        39.338               
G32  25094025.016 7 131869964.502 7      -574.581 7        44.599               
> 2024 12 27 02 48 13.0000000  0  5                                             
G29  27808266.724 6 146133553.612 6       124.956 6        40.643               
G31  25425944.620 7 133614163.037 7       164.262 7        42.620               
G28  25820452.674 6 135687314.301 6      -623.868 6        41.276               
G16  26097963.836 6 137145786.543 6      3076.154 6        38.995               
G32  25094135.340 7 131870539.652 7      -575.070 7        45.126               
> 2024 12 27 02 48 14.0000000  0  5                                             
G29  27808250.535 6 146133431.883 6       118.429 6        40.400               
G31  25425911.491 7 133614001.567 7       162.213 7        42.526               
G28  25820576.524 6 135687945.643 6      -629.359 6        41.224               
G16  26097380.520 6 137142712.008 6      3079.148 6        39.255               
G32  25094243.805 7 131871115.278 7      -577.548 7        44.815               
> 2024 12 27 02 48 15.0000000  0  5                                             
G29  27808228.716 6 146133310.639 6       126.489 6        40.522               
G31  25425881.899 7 133613840.220 7       161.227 7        42.507               
G28  25820695.174 7 135688577.003 7      -635.303 7        42.094               
G16  26096789.806 6 137139637.861 6      3074.902 6        38.624               
G32  25094354.343 7 131871691.381 7      -574.094 7        45.015               
> 2024 12 27 02 48 16.0000000  0  5                                             
G29  27808207.238 6 146133189.911 6       125.742 6        41.412               
G31  25425844.124 7 133613679.000 7       160.464 7        42.264               
G28  25820813.163 7 135689208.402 7      -630.229 7        42.064               
G16  26096209.366 6 137136564.122 6      3079.086 6        38.982               
G32  25094463.790 7 131872267.942 7      -576.921 7        44.942               
> 2024 12 27 02 48 17.0000000  0  5                                             
G29  27808189.851 6 146133069.722 6       124.443 6        41.496               
G31  25425818.375 7 133613517.908 7       159.995 7        42.558               
G28  25820938.479 7 135689839.838 7      -630.233 7        42.236               
G16  26095619.563 6 137133490.770 6      3071.622 6        39.148               
G32  25094573.417 7 131872844.975 7      -578.889 7        44.873               
> 2024 12 27 02 48 18.0000000  0  5                                             
G29  27808177.790 7 146132950.007 7       118.507 7        42.164               
G31  25425783.995 7 133613356.971 7       165.218 7        42.833               
G28  25821061.829 6 135690471.329 6      -629.215 6        41.961               
G16  26095041.429 6 137130417.856 6      3076.023 6        39.308               
G32  25094680.452 7 131873422.494 7      -581.981 7        44.866               
> 2024 12 27 02 48 19.0000000  0  5                                             
G29  27808156.454 7 146132830.799 7       119.491 7        42.415               
G31  25425753.564 7 133613196.138 7       159.308 7        42.284               
G28  25821180.354 7 135691102.861 7      -632.092 7        42.530               
G16  26094449.410 6 137127345.323 6      3076.013 6        39.136               
G32  25094793.313 7 131874000.484 7      -579.242 7        44.713               
