     3.02           OBSERVATION DATA    G                   RINEX VERSION / TYPE
G = GPS  R = GLONASS  E = GALILEO  S = GEO  M = MIXED       COMMENT             
GNSS-SDR            tagsys-g1           20241227 024922 UTC PGM / RUN BY / DATE 
GPS OBSERVATION DATA FILE GENERATED BY GNSS-SDR             COMMENT             
GNSS-SDR VERSION 0.0.19.git-next-dc55847ae                  COMMENT             
See https://gnss-sdr.org                                    COMMENT             
DEFAULT MARKER NAME                                         MARKER NAME         
tagsys-g1           CTTC                                    OBSERVER / AGENCY   
GNSS-SDR            Software Receiver   0.0.19.gi           REC # / TYPE / VERS 
Antenna number      Antenna type                            ANT # / TYPE        
        0.0000        0.0000        0.0000                  APPROX POSITION XYZ 
        0.0000        0.0000        0.0000                  ANTENNA: DELTA H/E/N
G    4 C1C L1C D1C S1C                                      SYS / # / OBS TYPES 
DBHZ                                                        SIGNAL STRENGTH UNIT
  2024    12    27    02    44    6.3200000     GPS         TIME OF FIRST OBS   
                                                            END OF HEADER       
> 2024 12 27 02 44 07.0000000  0  4                                             
G32  25069879.874 7 131743103.517 7      -461.538 7        44.892               
G28  25791117.778 6 135533226.424 6      -621.436 6        41.392               
G29  27816885.954 6 146178780.326 6       244.596 6        41.885               
G26  24374371.041 7 128088169.369 7      1068.785 7        42.692               
> 2024 12 27 02 44 08.0000000  0  4                                             
G32  25069967.397 7 131743564.849 7      -463.412 7        45.077               
G28  25791232.515 6 135533848.022 6      -614.289 6        40.808               
G29  27816848.286 6 146178534.862 6       248.145 6        41.858               
G26  24374165.958 7 128087099.757 7      1079.301 7        42.539               
> 2024 12 27 02 44 09.0000000  0  4                                             
G32  25070056.313 7 131744026.661 7      -462.187 7        44.438               
G28  25791348.985 6 135534469.671 6      -619.048 6        40.963               
G29  27816793.714 6 146178289.908 6       241.982 6        40.854               
G26  24373963.359 7 128086030.733 7      1069.714 7        42.882               
> 2024 12 27 02 44 10.0000000  0  4                                             
G32  25070141.691 7 131744488.929 7      -464.180 7        45.251               
G28  25791473.782 6 135535091.362 6      -622.388 6        40.569               
G29  27816740.572 6 146178045.431 6       242.752 6        41.015               
G26  24373762.672 7 128084962.259 7      1072.406 7        42.819               
> 2024 12 27 02 44 11.0000000  0  4                                             
G32  25070232.287 7 131744951.628 7      -462.889 7        45.643               
G28  25791588.091 6 135535713.059 6      -624.508 6        40.812               
G29  27816699.312 6 146177801.438 6       243.894 6        41.019               
G26  24373555.553 7 128083894.359 7      1072.089 7        42.795               
> 2024 12 27 02 44 12.0000000  0  4                                             
G32  25070318.845 7 131745414.797 7      -466.492 7        45.221               
G28  25791704.632 6 135536334.825 6      -626.035 6        41.139               
G29  27816651.566 6 146177557.948 6       239.801 6        41.075               
G26  24373352.971 7 128082827.033 7      1065.993 7        43.210               
> 2024 12 27 02 44 13.0000000  0  4                                             
G32  25070403.884 7 131745878.422 7      -462.783 7        44.765               
G28  25791823.086 6 135536956.624 6      -623.380 6        41.037               
G29  27816598.084 6 146177314.966 6       249.614 6        40.507               
G26  24373149.872 7 128081760.324 7      1064.605 7        43.000               
> 2024 12 27 02 44 14.0000000  0  4                                             
G32  25070490.870 7 131746342.501 7      -463.700 7        45.003               
G28  25791932.462 6 135537578.461 6      -629.733 6        40.613               
G29  27816554.877 6 146177072.458 6       241.544 6        40.425               
G26  24372946.004 7 128080694.173 7      1064.162 7        42.882               
> 2024 12 27 02 44 15.0000000  0  4                                             
G32  25070580.394 7 131746807.042 7      -468.431 7        45.347               
G28  25792059.654 6 135538200.328 6      -619.934 6        40.357               
G29  27816508.132 6 146176830.469 6       237.378 6        40.292               
G26  24372744.978 7 128079628.596 7      1055.569 7        43.031               
> 2024 12 27 02 44 16.0000000  0  4                                             
G32  25070669.578 7 131747272.029 7      -461.216 7        45.219               
G28  25792171.997 6 135538822.246 6      -621.877 6        39.768               
G29  27816473.734 6 146176588.959 6       240.527 6        40.833               
G26  24372542.701 7 128078563.606 7      1059.353 7        42.776               
> 2024 12 27 02 44 17.0000000  0  4                                             
G32  25070757.226 7 131747737.472 7      -464.428 7        45.164               
G28  25792289.700 6 135539444.172 6      -621.599 6        39.359               
G29  27816430.294 6 146176347.935 6       239.567 6        40.913               
G26  24372336.599 7 128077499.169 7      1069.945 7        42.842               
> 2024 12 27 02 44 18.0000000  0  4                                             
G32  25070843.051 7 131748203.374 7      -463.476 7        44.854               
G28  25792413.818 6 135540066.177 6      -622.997 6        40.515               
G29  27816387.069 6 146176107.391 6       244.124 6        41.287               
G26  24372137.002 7 128076435.321 7      1070.802 7        43.114               
> 2024 12 27 02 44 19.0000000  0  4                                             
G32  25070935.773 7 131748669.718 7      -466.097 7        45.332               
G28  25792527.358 6 135540688.138 6      -622.896 6        40.112               
G29  27816350.384 6 146175867.332 6       237.934 6        41.641               
G26  24371933.170 7 128075372.052 7      1062.323 7        42.630               
> 2024 12 27 02 44 20.0000000  0  4                                             
G32  25071024.082 7 131749136.509 7      -465.006 7        45.033               
G28  25792647.241 6 135541310.185 6      -620.409 6        39.778               
G29  27816297.849 7 146175627.772 7       236.420 7        42.816               
G26  24371731.107 7 128074309.338 7      1065.646 7        42.326               
> 2024 12 27 02 44 21.0000000  0  4                                             
G32  25071113.159 7 131749603.781 7      -468.966 7        45.265               
G28  25792765.284 6 135541932.255 6      -618.617 6        39.855               
G29  27816258.805 7 146175388.697 7       237.871 7        42.888               
G26  24371528.044 7 128073247.212 7      1060.557 7        42.644               
> 2024 12 27 02 44 22.0000000  0  4                                             
G32  25071203.880 7 131750071.511 7      -466.531 7        45.481               
G28  25792883.755 6 135542554.422 6      -626.056 6        38.940               
G29  27816213.489 7 146175150.148 7       235.556 7        42.924               
G26  24371330.520 7 128072185.695 7      1063.336 7        42.137               
> 2024 12 27 02 44 23.0000000  0  4                                             
G32  25071290.795 7 131750539.725 7      -466.893 7        44.867               
G28  25792999.922 6 135543176.607 6      -626.712 6        39.553               
G29  27816168.870 7 146174912.098 7       238.739 7        42.951               
G26  24371121.238 7 128071124.743 7      1059.933 7        42.535               
> 2024 12 27 02 44 24.0000000  0  4                                             
G32  25071378.621 7 131751008.372 7      -474.928 7        44.822               
G28  25793116.357 6 135543798.812 6      -624.675 6        39.266               
G29  27816124.430 7 146174674.549 7       236.251 7        42.292               
G26  24370922.445 7 128070064.383 7      1059.726 7        42.267               
> 2024 12 27 02 44 25.0000000  0  4                                             
G32  25071466.679 7 131751477.480 7      -471.170 7        44.862               
G28  25793238.313 6 135544421.061 6      -626.143 6        38.893               
G29  27816075.433 7 146174437.482 7       238.309 7        42.584               
G26  24370719.935 7 128069004.589 7      1060.156 7        42.065               
> 2024 12 27 02 44 26.0000000  0  4                                             
G32  25071558.169 7 131751947.083 7      -472.701 7        45.138               
G28  25793356.445 6 135545043.375 6      -624.655 6        39.197               
G29  27816030.350 7 146174200.920 7       231.982 7        42.302               
G26  24370516.478 6 128067945.407 6      1055.697 6        41.598               
> 2024 12 27 02 44 27.0000000  0  4                                             
G32  25071646.567 7 131752417.120 7      -473.334 7        45.452               
G28  25793471.414 6 135545665.741 6      -624.167 6        39.238               
G29  27815976.439 6 146173964.863 6       233.250 6        41.625               
G26  24370317.275 7 128066886.798 7      1057.291 7        42.511               
> 2024 12 27 02 44 28.0000000  0  4                                             
G32  25071736.305 7 131752887.851 7      -470.954 7        45.438               
G28  25793594.442 6 135546288.341 6      -621.794 6        39.059               
G29  27815930.515 6 146173729.530 6       232.598 6        40.691               
G26  24370119.250 7 128065828.973 7      1054.488 7        42.362               
> 2024 12 27 02 44 29.0000000  0  4                                             
G32  25071826.669 7 131753359.254 7      -468.954 7        45.659               
G28  25793704.569 6 135546911.192 6      -623.044 6        39.134               
G29  27815881.662 6 146173494.901 6       236.013 6        40.659               
G26  24369917.652 7 128064771.956 7      1059.210 7        42.341               
> 2024 12 27 02 44 30.0000000  0  4                                             
G32  25071915.817 7 131753831.128 7      -471.228 7        45.568               
G28  25793831.779 6 135547534.123 6      -621.985 6        39.773               
G29  27815831.861 6 146173260.777 6       236.573 6        40.191               
G26  24369716.429 7 128063715.526 7      1056.510 7        42.673               
> 2024 12 27 02 44 31.0000000  0  4                                             
G32  25072008.164 7 131754303.453 7      -471.655 7        46.057               
G28  25793944.890 6 135548157.066 6      -626.462 6        39.500               
G29  27815789.064 6 146173027.141 6       229.497 6        40.365               
G26  24369512.490 7 128062659.670 7      1058.582 7        42.418               
> 2024 12 27 02 44 32.0000000  0  4                                             
G32  25072097.867 7 131754776.267 7      -475.413 7        46.052               
G28  25794064.201 6 135548780.057 6      -619.077 6        39.702               
G29  27815735.386 6 146172794.042 6       229.729 6        40.482               
G26  24369316.180 7 128061604.428 7      1054.733 7        42.873               
> 2024 12 27 02 44 33.0000000  0  4                                             
G32  25072186.730 7 131755249.521 7      -474.824 7        46.136               
G28  25794175.900 6 135549403.095 6      -621.917 6        39.990               
G29  27815690.034 6 146172561.399 6       232.038 6        39.496               
G26  24369115.190 7 128060549.727 7      1060.763 7        43.286               
> 2024 12 27 02 44 34.0000000  0  4                                             
G32  25072277.361 7 131755723.225 7      -476.119 7        46.559               
G28  25794302.752 6 135550026.154 6      -625.102 6        40.154               
G29  27815647.488 6 146172329.243 6       233.227 6        39.418               
G26  24368916.701 7 128059495.605 7      1053.388 7        42.822               
> 2024 12 27 02 44 35.0000000  0  4                                             
G32  25072368.583 7 131756197.384 7      -477.414 7        45.899               
G28  25794420.349 6 135550649.245 6      -622.443 6        40.262               
G29  27815603.709 6 146172097.617 6       230.058 6        39.601               
G26  24368716.192 7 128058442.059 7      1054.045 7        42.962               
> 2024 12 27 02 44 36.0000000  0  4                                             
G32  25072458.553 7 131756672.003 7      -474.655 7        46.201               
G28  25794541.858 6 135551272.399 6      -623.191 6        39.991               
G29  27815566.095 6 146171866.473 6       232.436 6        40.000               
G26  24368515.845 7 128057389.118 7      1053.915 7        43.274               
> 2024 12 27 02 44 37.0000000  0  4                                             
G32  25072548.613 7 131757147.074 7      -475.425 7        45.874               
G28  25794658.239 6 135551895.567 6      -623.443 6        39.939               
G29  27815528.605 6 146171635.802 6       226.407 6        40.386               
G26  24368315.408 7 128056336.720 7      1054.953 7        43.097               
> 2024 12 27 02 44 38.0000000  0  4                                             
G32  25072639.745 7 131757622.604 7      -473.052 7        46.340               
G28  25794776.532 6 135552518.770 6      -625.670 6        39.981               
G29  27815485.809 6 146171405.647 6       228.179 6        41.057               
G26  24368116.186 7 128055284.924 7      1050.438 7        42.971               
> 2024 12 27 02 44 39.0000000  0  4                                             
G32  25072729.644 7 131758098.607 7      -479.487 7        45.776               
G28  25794891.483 6 135553142.035 6      -617.913 6        40.119               
G29  27815450.268 6 146171175.985 6       231.130 6        41.774               
G26  24367916.089 7 128054233.714 7      1050.832 7        42.873               
> 2024 12 27 02 44 40.0000000  0  4                                             
G32  25072821.562 7 131758575.040 7      -476.632 7        45.871               
G28  25795012.367 6 135553765.306 6      -624.470 6        39.804               
G29  27815409.276 6 146170946.808 6       226.349 6        41.543               
G26  24367717.725 7 128053183.056 7      1048.069 7        43.170               
> 2024 12 27 02 44 41.0000000  0  4                                             
G32  25072909.567 7 131759051.946 7      -477.883 7        45.915               
G28  25795132.733 6 135554388.615 6      -617.795 6        39.616               
G29  27815368.696 6 146170718.119 6       229.533 6        41.551               
G26  24367517.413 7 128052132.987 7      1053.926 7        43.322               
> 2024 12 27 02 44 42.0000000  0  4                                             
G32  25073003.576 7 131759529.287 7      -478.123 7        46.221               
G28  25795248.328 6 135555011.956 6      -621.690 6        39.656               
G29  27815320.217 6 146170489.912 6       227.938 6        41.989               
G26  24367316.065 7 128051083.485 7      1048.163 7        42.816               
> 2024 12 27 02 44 43.0000000  0  4                                             
G32  25073094.226 7 131760007.085 7      -478.458 7        46.416               
G28  25795366.620 6 135555635.343 6      -625.466 6        39.598               
G29  27815279.815 7 146170262.192 7       232.784 7        42.625               
G26  24367117.165 7 128050034.557 7      1048.070 7        42.720               
> 2024 12 27 02 44 44.0000000  0  4                                             
G32  25073185.930 7 131760485.327 7      -478.031 7        46.507               
G28  25795485.628 6 135556258.744 6      -623.624 6        40.140               
G29  27815242.183 7 146170034.962 7       225.646 7        42.697               
G26  24366915.102 7 128048986.184 7      1044.870 7        43.601               
> 2024 12 27 02 44 45.0000000  0  4                                             
G32  25073276.365 7 131760964.022 7      -479.682 7        46.564               
G28  25795605.047 6 135556882.173 6      -637.128 6        39.670               
G29  27815199.226 7 146169808.214 7       225.856 7        42.773               
G26  24366714.308 7 128047938.382 7      1046.733 7        43.212               
> 2024 12 27 02 44 46.0000000  0  4                                             
G32  25073370.070 7 131761443.182 7      -482.106 7        46.675               
G28  25795725.484 6 135557505.652 6      -622.949 6        39.393               
G29  27815154.803 7 146169581.971 7       230.595 7        42.408               
G26  24366517.838 7 128046891.184 7      1040.807 7        43.173               
> 2024 12 27 02 44 47.0000000  0  4                                             
G32  25073459.361 7 131761922.778 7      -481.473 7        46.832               
G28  25795845.814 6 135558129.130 6      -623.585 6        39.360               
G29  27815108.272 7 146169356.217 7       228.129 7        42.324               
G26  24366317.097 7 128045844.522 7      1041.319 7        42.949               
> 2024 12 27 02 44 48.0000000  0  4                                             
G32  25073549.403 7 131762402.797 7      -479.454 7        46.594               
G28  25795963.142 6 135558752.645 6      -617.353 6        39.764               
G29  27815066.048 6 146169130.919 6       224.087 6        41.527               
G26  24366119.484 7 128044798.424 7      1045.867 7        43.173               
> 2024 12 27 02 44 49.0000000  0  4                                             
G32  25073641.679 7 131762883.334 7      -479.442 7        46.417               
G28  25796085.992 6 135559376.228 6      -615.690 6        39.715               
G29  27815015.550 6 146168906.183 6       224.442 6        40.890               
G26  24365923.746 7 128043752.952 7      1043.874 7        42.737               
> 2024 12 27 02 44 50.0000000  0  4                                             
G32  25073731.453 7 131763364.332 7      -484.395 7        46.209               
G28  25796200.586 6 135559999.849 6      -622.833 6        39.531               
G29  27814966.839 6 146168681.920 6       233.227 6        40.521               
G26  24365723.185 7 128042708.054 7      1044.914 7        42.948               
> 2024 12 27 02 44 51.0000000  0  4                                             
G32  25073825.944 7 131763845.774 7      -483.884 7        46.341               
G28  25796314.572 6 135560623.552 6      -634.418 6        38.763               
G29  27814922.810 6 146168458.190 6       223.725 6        39.747               
G26  24365525.196 7 128041663.737 7      1046.373 7        43.367               
> 2024 12 27 02 44 52.0000000  0  4                                             
G32  25073915.986 7 131764327.690 7      -484.523 7        46.295               
G28  25796432.132 6 135561247.232 6      -624.339 6        38.980               
G29  27814868.095 6 146168234.957 6       225.421 6        39.299               
G26  24365327.815 7 128040620.005 7      1038.254 7        43.648               
> 2024 12 27 02 44 53.0000000  0  4                                             
G32  25074010.531 7 131764810.060 7      -481.725 7        45.939               
G28  25796551.104 6 135561870.959 6      -624.411 6        38.837               
G29  27814824.030 6 146168012.199 6       221.474 6        38.697               
G26  24365128.378 7 128039576.847 7      1046.809 7        43.568               
> 2024 12 27 02 44 54.0000000  0  4                                             
G32  25074103.611 7 131765292.910 7      -479.979 7        46.327               
G28  25796672.900 6 135562494.749 6      -621.187 6        38.515               
G29  27814779.554 6 146167789.965 6       223.106 6        38.665               
G26  24364926.619 7 128038534.278 7      1041.068 7        43.273               
> 2024 12 27 02 44 55.0000000  0  4                                             
G32  25074197.477 7 131765776.173 7      -483.958 7        46.270               
G28  25796792.265 6 135563118.544 6      -625.897 6        38.325               
G29  27814738.133 6 146167568.189 6       219.817 6        39.085               
G26  24364732.437 7 128037492.263 7      1038.038 7        43.340               
> 2024 12 27 02 44 56.0000000  0  4                                             
G32  25074287.877 7 131766259.916 7      -483.264 7        45.850               
G28  25796909.825 6 135563742.385 6      -628.694 6        38.458               
G29  27814704.039 6 146167346.925 6       227.482 6        39.417               
G26  24364531.410 7 128036450.817 7      1036.633 7        43.567               
> 2024 12 27 02 44 57.0000000  0  4                                             
G32  25074382.672 7 131766744.113 7      -481.649 7        46.017               
G28  25797031.853 6 135564366.248 6      -628.171 6        38.581               
G29  27814663.191 6 146167126.166 6       224.126 6        39.659               
G26  24364331.045 7 128035409.962 7      1038.891 7        43.455               
> 2024 12 27 02 44 58.0000000  0  4                                             
G32  25074472.928 7 131767228.769 7      -484.066 7        46.155               
G28  25797144.981 6 135564990.163 6      -622.900 6        38.422               
G29  27814631.455 6 146166905.854 6       221.320 6        39.525               
G26  24364139.471 7 128034369.662 7      1042.557 7        43.041               
> 2024 12 27 02 44 59.0000000  0  4                                             
G32  25074564.221 7 131767713.860 7      -485.260 7        46.311               
G28  25797263.578 6 135565614.127 6      -628.721 6        38.281               
G29  27814587.873 6 146166686.074 6       220.003 6        40.759               
G26  24363938.891 7 128033329.949 7      1038.079 7        43.490               
> 2024 12 27 02 45 00.0000000  0  4                                             
G32  25074655.657 7 131768199.397 7      -485.750 7        46.052               
G28  25797383.015 6 135566238.090 6      -619.984 6        37.867               
G29  27814553.689 6 146166466.748 6       219.450 6        40.779               
G26  24363739.580 7 128032290.804 7      1038.317 7        43.501               
> 2024 12 27 02 45 01.0000000  0  4                                             
G32  25074745.556 7 131768685.385 7      -490.277 7        46.354               
G28  25797503.363 6 135566862.061 6      -623.101 6        38.686               
G29  27814512.662 6 146166247.896 6       223.699 6        41.067               
G26  24363542.860 7 128031252.200 7      1038.819 7        42.833               
> 2024 12 27 02 45 02.0000000  0  4                                             
G32  25074835.401 7 131769171.849 7      -486.599 7        46.010               
G28  25797622.853 6 135567486.114 6      -624.948 6        38.067               
G29  27814475.459 6 146166029.570 6       213.643 6        40.934               
G26  24363341.994 7 128030214.208 7      1037.743 7        42.559               
> 2024 12 27 02 45 03.0000000  0  4                                             
G32  25074926.944 7 131769658.775 7      -488.156 7        45.881               
G28  25797738.501 6 135568110.180 6      -622.377 6        38.357               
G29  27814430.893 6 146165811.732 6       217.627 6        41.293               
G26  24363145.775 7 128029176.808 7      1034.053 7        42.455               
> 2024 12 27 02 45 04.0000000  0  4                                             
G32  25075017.415 7 131770146.159 7      -487.377 7        45.523               
G28  25797856.008 6 135568734.303 6      -624.733 6        37.644               
G29  27814398.479 6 146165594.426 6       214.168 6        41.214               
G26  24362944.123 7 128028139.967 7      1035.025 7        42.165               
> 2024 12 27 02 45 05.0000000  0  4                                             
G32  25075110.280 7 131770634.022 7      -487.462 7        45.425               
G28  25797969.422 6 135569358.500 6      -625.528 6        37.502               
G29  27814350.787 6 146165377.605 6       210.984 6        41.359               
G26  24362748.743 7 128027103.735 7      1037.045 7        42.466               
> 2024 12 27 02 45 06.0000000  0  4                                             
G32  25075206.434 7 131771122.351 7      -487.173 7        45.708               
G28  25798091.414 6 135569982.732 6      -628.108 6        37.380               
G29  27814315.513 6 146165161.298 6       215.034 6        41.277               
G26  24362549.360 7 128026068.089 7      1032.949 7        42.520               
> 2024 12 27 02 45 07.0000000  0  4                                             
G32  25075302.158 7 131771611.138 7      -489.928 7        45.591               
G28  25798214.782 6 135570606.951 6      -619.600 6        37.967               
G29  27814268.375 6 146164945.482 6       219.910 6        41.412               
G26  24362352.104 7 128025033.033 7      1029.197 7        42.026               
> 2024 12 27 02 45 08.0000000  0  4                                             
G32  25075395.327 7 131772100.378 7      -486.703 7        45.532               
G28  25798334.040 6 135571231.254 6      -621.020 6        37.968               
G29  27814234.191 6 146164730.159 6       212.851 6        41.327               
G26  24362161.031 7 128023998.525 7      1034.082 7        42.077               
> 2024 12 27 02 45 09.0000000  0  4                                             
G32  25075490.444 7 131772590.071 7      -492.119 7        45.702               
G28  25798452.279 6 135571855.619 6      -621.068 6        37.420               
G29  27814187.625 6 146164515.345 6       217.875 6        40.140               
G26  24361964.579 7 128022964.640 7      1029.572 7        42.019               
> 2024 12 27 02 45 10.0000000  0  4                                             
G32  25075587.401 7 131773080.225 7      -490.421 7        46.510               
G28  25798572.127 6 135572479.960 6      -626.321 6        37.489               
G29  27814145.132 6 146164300.999 6       216.294 6        40.388               
G26  24361765.464 6 128021931.264 6      1035.966 6        41.599               
> 2024 12 27 02 45 11.0000000  0  4                                             
G32  25075681.285 7 131773570.835 7      -493.190 7        46.702               
G28  25798690.634 6 135573104.339 6      -631.159 6        36.813               
G29  27814099.548 6 146164087.149 6       218.518 6        40.105               
G26  24361572.282 6 128020898.487 6      1034.514 6        41.819               
> 2024 12 27 02 45 12.0000000  0  4                                             
G32  25075774.061 7 131774061.949 7      -491.472 7        46.191               
G28  25798799.135 6 135573728.823 6      -633.227 6        36.738               
G29  27814047.156 6 146163873.862 6       211.442 6        39.390               
G26  24361374.400 6 128019866.326 6      1029.027 6        41.927               
> 2024 12 27 02 45 13.0000000  0  4                                             
G32  25075865.729 7 131774553.492 7      -489.741 7        46.436               
G28  25798925.111 6 135574353.285 6      -616.723 6        36.938               
G29  27814010.257 6 146163661.020 6       214.647 6        39.253               
G26  24361182.898 6 128018834.726 6      1034.314 6        41.883               
> 2024 12 27 02 45 14.0000000  0  4                                             
G32  25075960.006 7 131775045.497 7      -494.176 7        46.735               
G28  25799044.101 6 135574977.830 6      -625.913 6        36.814               
G29  27813959.830 6 146163448.678 6       214.743 6        38.888               
G26  24360983.962 6 128017803.712 6      1027.049 6        41.675               
> 2024 12 27 02 45 15.0000000  0  4                                             
G32  25076050.441 7 131775537.966 7      -494.195 7        45.819               
G28  25799156.712 6 135575602.373 6      -616.389 6        37.132               
G29  27813913.228 6 146163236.867 6       204.265 6        37.525               
G26  24360782.811 6 128016773.275 6      1031.552 6        41.898               
> 2024 12 27 02 45 16.0000000  0  4                                             
G32  25076144.200 7 131776030.898 7      -492.026 7        45.382               
G28  25799279.526 6 135576226.988 6      -630.512 6        37.090               
G29  27813874.291 6 146163025.539 6       214.465 6        37.229               
G26  24360590.915 6 128015743.406 6      1033.203 6        41.878               
> 2024 12 27 02 45 17.0000000  0  4                                             
G32  25076234.278 7 131776524.285 7      -494.030 7        45.356               
G28  25799406.020 6 135576851.593 6      -624.951 6        37.777               
G29  27813823.061 6 146162814.698 6       220.490 6        36.766               
G26  24360397.680 6 128014714.130 6      1030.248 6        41.522               
> 2024 12 27 02 45 18.0000000  0  4                                             
G32  25076327.125 7 131777018.115 7      -495.340 7        45.019               
G28  25799517.452 6 135577476.268 6      -624.844 6        37.755               
G29  27813799.885 6 146162604.380 6       214.302 6        36.613               
G26  24360194.044 6 128013685.416 6      1027.553 6        41.473               
> 2024 12 27 02 45 19.0000000  0  4                                             
G32  25076423.797 7 131777512.398 7      -494.733 7        44.792               
G28  25799634.118 6 135578100.962 6      -627.359 6        37.790               
G29  27813753.979 6 146162394.516 6       208.954 6        36.798               
G26  24360000.952 6 128012657.257 6      1031.546 6        41.508               
> 2024 12 27 02 45 20.0000000  0  4                                             
G32  25076517.931 7 131778007.142 7      -497.619 7        45.178               
G28  25799760.720 6 135578725.708 6      -622.302 6        37.847               
G29  27813729.642 6 146162185.153 6       208.614 6        38.020               
G26  24359803.588 6 128011629.698 6      1035.674 6        41.173               
> 2024 12 27 02 45 21.0000000  0  4                                             
G32  25076615.638 7 131778502.335 7      -491.616 7        45.393               
G28  25799881.998 6 135579350.466 6      -625.724 6        37.531               
G29  27813693.189 6 146161976.273 6       211.986 6        38.810               
G26  24359599.810 6 128010602.744 6      1016.674 6        41.391               
> 2024 12 27 02 45 22.0000000  0  4                                             
G32  25076709.540 7 131778998.034 7      -493.946 7        45.445               
G28  25799999.308 6 135579975.289 6      -622.672 6        38.304               
G29  27813657.933 6 146161767.948 6       209.719 6        38.931               
G26  24359408.665 6 128009576.332 6      1024.547 6        41.549               
> 2024 12 27 02 45 23.0000000  0  4                                             
G32  25076804.871 7 131779494.206 7      -497.494 7        45.045               
G28  25800120.603 6 135580600.159 6      -625.876 6        38.687               
G29  27813627.877 6 146161560.098 6       209.054 6        39.572               
G26  24359216.126 6 128008550.550 6      1032.777 6        41.905               
> 2024 12 27 02 45 24.0000000  0  4                                             
G32  25076901.436 7 131779990.814 7      -499.044 7        45.198               
G28  25800241.790 6 135581225.039 6      -621.202 6        39.088               
G29  27813590.460 6 146161352.732 6       200.385 6        40.811               
G26  24359025.035 6 128007525.315 6      1024.641 6        41.836               
> 2024 12 27 02 45 25.0000000  0  4                                             
G32  25076993.586 7 131780487.881 7      -495.752 7        45.037               
G28  25800356.545 6 135581849.993 6      -622.291 6        38.893               
G29  27813552.452 6 146161145.848 6       205.095 6        41.066               
G26  24358831.085 6 128006500.645 6      1029.659 6        41.529               
> 2024 12 27 02 45 26.0000000  0  4                                             
G32  25077087.524 7 131780985.423 7      -496.692 7        44.265               
G28  25800476.518 6 135582474.961 6      -622.356 6        38.825               
G29  27813513.516 6 146160939.497 6       202.440 6        40.919               
G26  24358636.598 6 128005476.588 6      1027.953 6        41.161               
> 2024 12 27 02 45 27.0000000  0  4                                             
G32  25077181.425 7 131781483.396 7      -502.459 7        44.755               
G28  25800596.187 6 135583099.963 6      -628.638 6        38.465               
G29  27813472.971 6 146160733.618 6       206.334 6        41.049               
G26  24358443.631 6 128004453.080 6      1024.422 6        41.343               
> 2024 12 27 02 45 28.0000000  0  4                                             
G32  25077276.739 7 131781981.867 7      -500.437 7        45.160               
G28  25800714.301 6 135583725.035 6      -622.002 6        38.614               
G29  27813432.462 6 146160528.260 6       202.132 6        40.455               
G26  24358249.466 6 128003430.181 6      1021.736 6        41.565               
> 2024 12 27 02 45 29.0000000  0  4                                             
G32  25077367.335 7 131782480.823 7      -500.105 7        45.019               
G28  25800837.544 6 135584350.142 6      -615.266 6        38.449               
G29  27813393.758 6 146160323.419 6       202.805 6        39.625               
G26  24358050.494 6 128002407.879 6      1021.819 6        41.141               
> 2024 12 27 02 45 30.0000000  0  4                                             
G32  25077464.935 7 131782980.230 7      -496.639 7        45.200               
G28  25800954.907 6 135584975.334 6      -622.613 6        38.490               
G29  27813356.733 6 146160119.108 6       203.186 6        39.026               
G26  24357855.883 6 128001386.204 6      1017.801 6        41.804               
> 2024 12 27 02 45 31.0000000  0  4                                             
G32  25077556.442 7 131783480.123 7      -495.679 7        44.915               
G28  25801069.573 6 135585600.538 6      -624.367 6        38.633               
G29  27813297.247 6 146159915.286 6       210.071 6        38.469               
G26  24357663.934 6 128000365.045 6      1018.392 6        41.294               
> 2024 12 27 02 45 32.0000000  0  4                                             
G32  25077655.937 7 131783980.450 7      -499.165 7        44.911               
G28  25801193.834 6 135586225.786 6      -621.082 6        38.747               
G29  27813262.081 6 146159711.936 6       200.203 6        37.836               
G26  24357469.161 6 127999344.487 6      1027.274 6        41.498               
> 2024 12 27 02 45 33.0000000  0  4                                             
G32  25077751.215 7 131784481.244 7      -501.115 7        45.140               
G28  25801307.034 6 135586851.066 6      -624.725 6        37.968               
G29  27813213.548 6 146159509.123 6       193.785 6        37.376               
G26  24357275.550 6 127998324.544 6      1015.729 6        41.635               
> 2024 12 27 02 45 34.0000000  0  4                                             
G32  25077849.191 7 131784982.514 7      -504.962 7        45.462               
G28  25801431.510 6 135587476.391 6      -623.187 6        38.090               
G29  27813173.021 6 146159306.809 6       200.750 6        36.275               
G26  24357076.847 6 127997305.138 6      1016.724 6        41.771               
> 2024 12 27 02 45 35.0000000  0  4                                             
G32  25077945.165 7 131785484.206 7      -505.293 7        45.925               
G28  25801548.534 6 135588101.724 6      -622.708 6        38.831               
G29  27813124.882 5 146159104.954 5       197.818 5        35.832               
G26  24356888.418 6 127996286.297 6      1013.258 6        41.453               
> 2024 12 27 02 45 36.0000000  0  4                                             
G32  25078042.676 7 131785986.399 7      -500.796 7        46.697               
G28  25801665.826 6 135588727.149 6      -623.740 6        38.409               
G29  27813085.463 6 146158903.649 6       207.351 6        36.079               
G26  24356698.059 6 127995268.060 6      1021.316 6        41.984               
> 2024 12 27 02 45 37.0000000  0  4                                             
G32  25078137.364 7 131786489.029 7      -502.400 7        46.738               
G28  25801788.855 6 135589352.546 6      -633.725 6        38.713               
G29  27813051.173 5 146158702.784 5       195.196 5        35.990               
G26  24356504.377 7 127994250.383 7      1021.208 7        42.330               
> 2024 12 27 02 45 38.0000000  0  4                                             
G32  25078230.462 7 131786992.164 7      -504.853 7        46.295               
G28  25801907.362 6 135589978.059 6      -623.408 6        38.589               
G29  27813015.131 6 146158502.449 6       201.968 6        36.909               
G26  24356309.354 7 127993233.352 7      1019.455 7        42.108               
> 2024 12 27 02 45 39.0000000  0  4                                             
G32  25078327.241 7 131787495.801 7      -506.788 7        46.032               
G28  25802026.298 6 135590603.632 6      -628.287 6        38.573               
G29  27812984.503 6 146158302.697 6       204.005 6        37.701               
G26  24356119.425 7 127992216.905 7      1014.271 7        42.429               
> 2024 12 27 02 45 40.0000000  0  4                                             
G32  25078422.286 7 131787999.897 7      -503.756 7        45.794               
G28  25802146.789 6 135591229.236 6      -627.734 6        38.027               
G29  27812951.857 6 146158103.441 6       205.966 6        36.620               
G26  24355923.526 7 127991201.052 7      1011.259 7        42.351               
> 2024 12 27 02 45 41.0000000  0  4                                             
G32  25078517.778 7 131788504.441 7      -506.077 7        45.573               
G28  25802266.797 6 135591854.898 6      -634.474 6        38.109               
G29  27812911.079 6 146157904.670 6       197.084 6        37.512               
G26  24355728.772 7 127990185.790 7      1017.690 7        42.228               
> 2024 12 27 02 45 42.0000000  0  4                                             
G32  25078614.860 7 131789009.446 7      -504.633 7        46.095               
G28  25802386.931 6 135592480.593 6      -627.032 6        38.591               
G29  27812872.697 6 146157706.409 6       199.452 6        37.340               
G26  24355539.378 7 127989171.103 7      1013.209 7        42.574               
> 2024 12 27 02 45 43.0000000  0  4                                             
G32  25078711.246 7 131789514.916 7      -507.847 7        45.999               
G28  25802504.527 6 135593106.301 6      -627.439 6        38.465               
G29  27812829.347 6 146157508.622 6       198.609 6        38.007               
G26  24355347.179 6 127988157.002 6      1014.018 6        41.950               
> 2024 12 27 02 45 44.0000000  0  4                                             
G32  25078808.882 7 131790020.829 7      -503.892 7        45.655               
G28  25802628.002 6 135593732.064 6      -626.930 6        38.836               
G29  27812791.250 6 146157311.346 6       198.469 6        38.000               
G26  24355150.781 6 127987143.438 6      1011.074 6        41.629               
> 2024 12 27 02 45 45.0000000  0  4                                             
G32  25078903.195 7 131790527.199 7      -506.717 7        45.523               
G28  25802742.310 6 135594357.840 6      -628.940 6        38.561               
G29  27812758.728 6 146157114.555 6       197.132 6        38.297               
G26  24354953.078 7 127986130.467 7      1018.238 7        42.018               
> 2024 12 27 02 45 46.0000000  0  4                                             
G32  25079003.065 7 131791034.017 7      -506.251 7        46.120               
G28  25802869.877 6 135594983.631 6      -623.345 6        38.604               
G29  27812720.899 6 146156918.259 6       200.302 6        38.457               
G26  24354767.008 7 127985118.048 7      1000.323 7        42.499               
> 2024 12 27 02 45 47.0000000  0  4                                             
G32  25079097.592 7 131791541.286 7      -505.906 7        46.055               
G28  25802983.023 6 135595609.448 6      -622.276 6        38.698               
G29  27812692.523 6 146156722.427 6       202.293 6        39.305               
G26  24354574.308 7 127984106.203 7      1009.780 7        42.287               
> 2024 12 27 02 45 48.0000000  0  4                                             
G32  25079194.639 7 131792049.020 7      -507.954 7        45.942               
G28  25803105.248 6 135596235.332 6      -625.332 6        38.866               
G29  27812664.773 6 146156527.094 6       198.024 6        39.421               
G26  24354382.019 7 127983094.941 7      1012.213 7        42.285               
> 2024 12 27 02 45 49.0000000  0  4                                             
G32  25079293.294 7 131792557.204 7      -510.128 7        45.739               
G28  25803229.402 6 135596861.216 6      -625.300 6        38.940               
G29  27812624.693 6 146156332.260 6       192.673 6        39.969               
G26  24354191.107 7 127982084.247 7      1012.122 7        42.445               
> 2024 12 27 02 45 50.0000000  0  4                                             
G32  25079387.445 7 131793065.853 7      -505.392 7        45.523               
G28  25803342.655 6 135597487.132 6      -628.431 6        38.977               
G29  27812594.440 6 146156137.906 6       203.635 6        40.474               
G26  24353996.066 7 127981074.123 7      1021.355 7        42.319               
> 2024 12 27 02 45 51.0000000  0  4                                             
G32  25079484.331 7 131793574.946 7      -508.580 7        44.858               
G28  25803468.310 6 135598113.080 6      -624.676 6        39.506               
G29  27812557.166 6 146155944.071 6       195.108 6        40.395               
G26  24353804.618 7 127980064.577 7      1005.490 7        42.678               
> 2024 12 27 02 45 52.0000000  0  4                                             
G32  25079578.912 7 131794084.522 7      -509.783 7        45.283               
G28  25803584.048 6 135598739.107 6      -633.315 6        39.157               
G29  27812525.359 6 146155750.709 6       197.276 6        40.823               
G26  24353614.062 7 127979055.625 7      1005.759 7        42.522               
> 2024 12 27 02 45 53.0000000  0  4                                             
G32  25079676.870 7 131794594.536 7      -510.308 7        45.669               
G28  25803701.233 6 135599365.099 6      -626.638 6        39.558               
G29  27812485.439 6 146155557.829 6       191.888 6        40.643               
G26  24353415.216 7 127978047.231 7      1006.304 7        42.673               
> 2024 12 27 02 45 54.0000000  0  4                                             
G32  25079772.827 7 131795104.993 7      -512.497 7        45.404               
G28  25803821.670 6 135599991.152 6      -621.984 6        39.539               
G29  27812452.435 6 146155365.476 6       189.544 6        39.938               
G26  24353224.125 7 127977039.362 7      1007.501 7        42.417               
> 2024 12 27 02 45 55.0000000  0  4                                             
G32  25079868.462 7 131795615.918 7      -511.171 7        44.981               
G28  25803939.838 6 135600617.256 6      -624.413 6        40.156               
G29  27812408.620 6 146155173.611 6       191.934 6        40.135               
G26  24353036.285 7 127976032.123 7      1012.444 7        42.488               
> 2024 12 27 02 45 56.0000000  0  4                                             
G32  25079964.454 7 131796127.317 7      -508.658 7        44.717               
G28  25804063.402 6 135601243.383 6      -627.565 6        40.045               
G29  27812372.596 6 146154982.239 6       195.483 6        39.593               
G26  24352840.852 6 127975025.499 6      1002.715 6        41.939               
> 2024 12 27 02 45 57.0000000  0  4                                             
G32  25080065.932 7 131796639.142 7      -514.632 7        45.279               
G28  25804177.925 6 135601869.533 6      -623.276 6        40.364               
G29  27812327.584 6 146154791.348 6       192.070 6        38.999               
G26  24352649.332 7 127974019.385 7      1007.366 7        42.721               
> 2024 12 27 02 45 58.0000000  0  4                                             
G32  25080160.120 7 131797151.448 7      -511.965 7        44.901               
G28  25804304.152 6 135602495.734 6      -624.216 6        41.166               
G29  27812282.626 6 146154600.983 6       186.036 6        38.365               
G26  24352459.902 7 127973013.873 7      1003.642 7        42.134               
> 2024 12 27 02 45 59.0000000  0  4                                             
G32  25080261.777 7 131797664.237 7      -509.387 7        44.855               
G28  25804415.244 6 135603121.981 6      -626.034 6        40.565               
G29  27812236.113 6 146154411.141 6       186.035 6        37.527               
G26  24352270.634 7 127972008.966 7      1005.703 7        42.042               
> 2024 12 27 02 46 00.0000000  0  4                                             
G32  25080359.645 7 131798177.460 7      -512.866 7        45.165               
G28  25804534.912 6 135603748.252 6      -625.210 6        40.445               
G29  27812187.813 6 146154221.788 6       185.235 6        36.985               
G26  24352080.096 7 127971004.603 7      1008.549 7        42.821               
> 2024 12 27 02 46 01.0000000  0  4                                             
G32  25080457.425 7 131798691.175 7      -511.683 7        45.607               
G28  25804654.992 6 135604374.590 6      -623.207 6        40.360               
G29  27812156.274 6 146154032.965 6       192.794 6        36.884               
G26  24351886.271 7 127970000.851 7      1000.479 7        43.133               
> 2024 12 27 02 46 02.0000000  0  4                                             
G32  25080554.739 7 131799205.377 7      -513.953 7        45.312               
G28  25804778.431 6 135605000.970 6      -626.629 6        40.955               
G29  27812120.983 6 146153844.656 6       188.291 6        37.542               
G26  24351700.505 7 127968997.706 7      1003.907 7        42.740               
> 2024 12 27 02 46 03.0000000  0  4                                             
G32  25080652.286 7 131799720.028 7      -514.305 7        45.986               
G28  25804896.099 6 135605627.382 6      -620.936 6        40.769               
G29  27812089.104 6 146153656.832 6       181.889 6        37.350               
G26  24351505.571 7 127967995.119 7      1003.939 7        42.214               
> 2024 12 27 02 46 04.0000000  0  4                                             
G32  25080749.458 7 131800235.179 7      -518.761 7        45.806               
G28  25805009.281 6 135606253.868 6      -629.656 6        40.248               
G29  27812064.070 6 146153469.526 6       186.502 6        38.169               
G26  24351319.662 7 127966993.150 7      1002.227 7        42.379               
> 2024 12 27 02 46 05.0000000  0  4                                             
G32  25080850.633 7 131800750.768 7      -510.260 7        45.631               
G28  25805133.346 6 135606880.385 6      -632.384 6        40.573               
G29  27812031.673 6 146153282.699 6       184.561 6        38.749               
G26  24351128.017 7 127965991.734 7      1004.896 7        42.770               
> 2024 12 27 02 46 06.0000000  0  4                                             
G32  25080948.930 7 131801266.832 7      -512.500 7        45.712               
G28  25805251.657 6 135607506.918 6      -621.290 6        40.548               
G29  27812008.301 6 146153096.405 6       182.434 6        39.342               
G26  24350939.874 7 127964990.939 7       998.441 7        42.255               
> 2024 12 27 02 46 07.0000000  0  4                                             
G32  25081046.513 7 131801783.333 7      -519.017 7        45.455               
G28  25805368.931 6 135608133.498 6      -629.997 6        40.385               
G29  27811977.602 6 146152910.561 6       190.272 6        39.866               
G26  24350743.851 7 127963990.660 7      1001.429 7        42.018               
> 2024 12 27 02 46 08.0000000  0  4                                             
G32  25081146.133 7 131802300.292 7      -515.492 7        45.544               
G28  25805491.191 6 135608760.094 6      -625.749 6        40.806               
G29  27811945.884 6 146152725.249 6       182.921 6        41.131               
G26  24350557.638 7 127962990.971 7       998.225 7        42.675               
> 2024 12 27 02 46 09.0000000  0  4                                             
G32  25081247.218 7 131802817.740 7      -514.262 7        45.775               
G28  25805603.176 6 135609386.747 6      -623.604 6        40.985               
G29  27811913.523 6 146152540.410 6       184.695 6        41.505               
G26  24350369.280 7 127961991.884 7       993.809 7        42.513               
> 2024 12 27 02 46 10.0000000  0  4                                             
G32  25081346.105 7 131803335.620 7      -517.464 7        46.125               
G28  25805719.700 6 135610013.431 6      -623.642 6        40.656               
G29  27811868.744 6 146152356.078 6       184.055 6        41.571               
G26  24350178.135 7 127960993.328 7       999.292 7        42.172               
> 2024 12 27 02 46 11.0000000  0  4                                             
G32  25081444.778 7 131803853.966 7      -520.982 7        46.054               
G28  25805839.834 6 135610640.125 6      -621.924 6        40.744               
G29  27811839.564 6 146152172.226 6       181.257 6        40.851               
G26  24349982.219 6 127959995.383 6       997.761 6        41.823               
> 2024 12 27 02 46 12.0000000  0  4                                             
G32  25081545.791 7 131804372.763 7      -519.231 7        46.479               
G28  25805956.876 6 135611266.854 6      -622.106 6        39.859               
G29  27811797.714 6 146151988.893 6       184.208 6        41.144               
G26  24349797.865 6 127958997.995 6       996.409 6        41.835               
> 2024 12 27 02 46 13.0000000  0  4                                             
G32  25081644.446 7 131804892.018 7      -518.637 7        46.187               
G28  25806079.993 6 135611893.631 6      -631.159 6        39.894               
G29  27811766.586 6 146151806.037 6       185.547 6        40.801               
G26  24349603.360 6 127958001.189 6       990.156 6        41.830               
> 2024 12 27 02 46 14.0000000  0  4                                             
G32  25081741.904 7 131805411.726 7      -521.908 7        46.308               
G28  25806193.676 6 135612520.420 6      -622.816 6        40.155               
G29  27811720.484 6 146151623.691 6       177.413 6        40.042               
G26  24349418.237 7 127957004.952 7       994.820 7        42.125               
> 2024 12 27 02 46 15.0000000  0  4                                             
G32  25081845.490 7 131805931.908 7      -518.826 7        46.214               
G28  25806318.777 6 135613147.250 6      -629.372 6        40.074               
G29  27811684.996 6 146151441.860 6       179.830 6        39.908               
G26  24349221.517 6 127956009.278 6       999.912 6        41.787               
> 2024 12 27 02 46 16.0000000  0  4                                             
G32  25081938.320 7 131806452.559 7      -519.797 7        46.136               
G28  25806433.782 6 135613774.149 6      -629.674 6        39.991               
G29  27811645.738 6 146151260.534 6       185.688 6        39.506               
G26  24349034.214 6 127955014.244 6       995.561 6        41.534               
> 2024 12 27 02 46 17.0000000  0  4                                             
G32  25082037.136 7 131806973.684 7      -516.351 7        45.472               
G28  25806551.843 6 135614401.081 6      -630.922 6        39.893               
G29  27811622.151 6 146151079.713 6       180.776 6        39.490               
G26  24348844.070 6 127954019.774 6       995.970 6        41.298               
> 2024 12 27 02 46 18.0000000  0  4                                             
G32  25082132.503 7 131807495.298 7      -521.539 7        45.510               
G28  25806668.617 6 135615028.080 6      -618.678 6        40.362               
G29  27811575.209 6 146150899.406 6       179.149 6        39.176               
G26  24348652.514 6 127953025.899 6       995.457 6        41.271               
> 2024 12 27 02 46 19.0000000  0  4                                             
G32  25082231.962 7 131808017.352 7      -517.675 7        45.550               
G28  25806786.195 6 135615655.087 6      -629.312 6        39.961               
G29  27811545.082 6 146150719.581 6       185.591 6        39.526               
G26  24348461.226 6 127952032.581 6       991.751 6        40.982               
> 2024 12 27 02 46 20.0000000  0  4                                             
G32  25082327.364 7 131808539.861 7      -523.883 7        45.385               
G28  25806901.307 6 135616282.137 6      -631.589 6        39.705               
G29  27811513.257 6 146150540.279 6       178.322 6        39.512               
G26  24348266.918 6 127951039.844 6       994.705 6        40.509               
> 2024 12 27 02 46 21.0000000  0  4                                             
G32  25082430.326 7 131809062.845 7      -524.414 7        45.254               
G28  25807024.711 6 135616909.228 6      -622.787 6        39.205               
G29  27811475.822 6 146150361.474 6       181.144 6        39.394               
G26  24348084.636 6 127950047.689 6       998.912 6        40.456               
> 2024 12 27 02 46 22.0000000  0  4                                             
G32  25082529.213 7 131809586.305 7      -522.792 7        44.966               
G28  25807143.343 6 135617536.396 6      -624.317 6        38.998               
G29  27811441.049 6 146150183.183 6       183.526 6        39.375               
G26  24347897.172 6 127949056.171 6       985.756 6        39.911               
> 2024 12 27 02 46 23.0000000  0  4                                             
G32  25082630.745 7 131810110.240 7      -524.412 7        45.319               
G28  25807257.633 6 135618163.581 6      -624.052 6        39.372               
G29  27811413.477 6 146150005.413 6       174.187 6        39.798               
G26  24347704.455 6 127948065.202 6       977.623 6        39.364               
> 2024 12 27 02 46 24.0000000  0  4                                             
G32  25082727.684 7 131810634.649 7      -525.639 7        45.818               
G28  25807379.518 6 135618790.804 6      -629.599 6        39.212               
G29  27811372.378 6 146149828.136 6       168.565 6        40.267               
G26  24347512.702 6 127947074.820 6       988.928 6        39.692               
> 2024 12 27 02 46 25.0000000  0  4                                             
G32  25082830.270 7 131811159.517 7      -525.075 7        46.128               
G28  25807495.756 6 135619418.065 6      -634.396 6        38.519               
G29  27811338.266 6 146149651.348 6       171.745 6        40.650               
G26  24347327.150 6 127946085.038 6       982.479 6        39.653               
> 2024 12 27 02 46 26.0000000  0  4                                             
G32  25082931.462 7 131811684.847 7      -525.861 7        45.979               
G28  25807618.820 6 135620045.359 6      -624.423 6        38.917               
G29  27811306.852 6 146149475.083 6       172.057 6        40.229               
G26  24347128.697 6 127945095.759 6       992.786 6        39.271               
> 2024 12 27 02 46 27.0000000  0  4                                             
G32  25083030.350 7 131812210.659 7      -529.341 7        46.046               
G28  25807733.450 6 135620672.730 6      -629.130 6        38.818               
G29  27811266.951 6 146149299.318 6       177.345 6        40.756               
G26  24346943.360 6 127944107.122 6       991.924 6        39.074               
> 2024 12 27 02 46 28.0000000  0  4                                             
G32  25083132.257 7 131812736.923 7      -528.997 7        46.136               
G28  25807848.937 6 135621300.124 6      -623.438 6        38.257               
G29  27811240.665 6 146149124.056 6       178.518 6        40.497               
G26  24346751.339 6 127943119.101 6       994.460 6        38.108               
> 2024 12 27 02 46 29.0000000  0  4                                             
G32  25083232.073 7 131813263.653 7      -526.394 7        46.214               
G28  25807975.664 6 135621927.522 6      -630.306 6        38.634               
G29  27811206.553 6 146148949.295 6       169.120 6        40.657               
G26  24346564.983 6 127942131.600 6       990.368 6        38.419               
> 2024 12 27 02 46 30.0000000  0  4                                             
G32  25083329.513 7 131813790.859 7      -525.538 7        46.336               
G28  25808093.743 6 135622555.016 6      -620.595 6        38.347               
G29  27811179.732 6 146148775.054 6       178.755 6        40.507               
G26  24346386.221 6 127941144.724 6       985.054 6        38.609               
> 2024 12 27 02 46 31.0000000  0  4                                             
G32  25083430.294 7 131814318.517 7      -528.607 7        45.914               
G28  25808214.823 6 135623182.514 6      -631.732 6        38.501               
G29  27811145.638 6 146148601.325 6       166.867 6        41.318               
G26  24346193.629 6 127940158.417 6       978.959 6        39.166               
> 2024 12 27 02 46 32.0000000  0  4                                             
G32  25083531.808 7 131814846.635 7      -527.696 7        45.795               
G28  25808334.975 6 135623810.042 6      -620.135 6        38.354               
G29  27811110.507 6 146148428.063 6       175.294 6        41.268               
G26  24346006.183 6 127939172.659 6       987.189 6        38.629               
> 2024 12 27 02 46 33.0000000  0  4                                             
G32  25083627.336 7 131815375.189 7      -528.922 7        45.800               
G28  25808456.198 6 135624437.620 6      -624.001 6        37.961               
G29  27811089.279 6 146148255.292 6       177.813 6        41.890               
G26  24345821.900 6 127938187.497 6       977.168 6        38.834               
> 2024 12 27 02 46 34.0000000  0  4                                             
G32  25083729.940 7 131815904.207 7      -528.974 7        45.836               
G28  25808575.009 6 135625065.203 6      -633.079 6        37.936               
G29  27811058.044 7 146148083.019 7       172.846 7        42.501               
G26  24345628.092 6 127937202.905 6       982.786 6        38.664               
> 2024 12 27 02 46 35.0000000  0  4                                             
G32  25083830.757 7 131816433.702 7      -532.647 7        46.127               
G28  25808696.447 6 135625692.844 6      -631.396 6        37.568               
G29  27811029.722 7 146147911.258 7       172.526 7        42.146               
G26  24345450.492 6 127936218.861 6       991.706 6        39.006               
> 2024 12 27 02 46 36.0000000  0  4                                             
G32  25083933.057 7 131816963.662 7      -531.860 7        45.744               
G28  25808810.630 6 135626320.514 6      -632.104 6        37.484               
G29  27811000.077 7 146147740.004 7       170.428 7        42.307               
G26  24345259.562 6 127935235.456 6       985.120 6        39.062               
> 2024 12 27 02 46 37.0000000  0  4                                             
G32  25084035.518 7 131817494.070 7      -529.598 7        45.961               
G28  25808930.781 6 135626948.187 6      -627.615 6        37.765               
G29  27810962.945 7 146147569.263 7       167.830 7        42.630               
G26  24345077.065 6 127934252.595 6       988.059 6        38.995               
> 2024 12 27 02 46 38.0000000  0  4                                             
G32  25084133.851 7 131818024.938 7      -529.197 7        46.040               
G28  25809045.804 6 135627575.947 6      -629.734 6        36.978               
G29  27810928.029 6 146147399.013 6       172.710 6        41.896               
G26  24344884.938 6 127933270.315 6       985.116 6        39.524               
> 2024 12 27 02 46 39.0000000  0  4                                             
G32  25084237.956 7 131818556.288 7      -530.165 7        45.651               
G28  25809167.010 6 135628203.742 6      -625.462 6        36.965               
G29  27810893.023 6 146147229.288 6       166.362 6        41.783               
G26  24344696.455 6 127932288.629 6       976.735 6        39.403               
> 2024 12 27 02 46 40.0000000  0  4                                             
G32  25084337.558 7 131819088.088 7      -532.260 7        45.587               
G28  25809295.631 6 135628831.563 6      -626.961 6        37.600               
G29  27810847.297 6 146147060.048 6       174.192 6        41.306               
G26  24344521.875 6 127931307.473 6       982.395 6        39.022               
> 2024 12 27 02 46 41.0000000  0  4                                             
G32  25084441.591 7 131819620.346 7      -529.584 7        45.684               
G28  25809411.208 6 135629459.399 6      -627.918 6        38.119               
G29  27810812.291 6 146146891.304 6       172.032 6        40.060               
G26  24344333.732 6 127930326.919 6       978.726 6        39.508               
> 2024 12 27 02 46 42.0000000  0  4                                             
G32  25084541.801 7 131820153.090 7      -532.618 7        45.639               
G28  25809526.374 6 135630087.307 6      -624.965 6        38.341               
G29  27810781.950 6 146146723.086 6       169.970 6        39.803               
G26  24344143.677 6 127929346.989 6       975.314 6        39.332               
> 2024 12 27 02 46 43.0000000  0  4                                             
G32  25084646.388 7 131820686.285 7      -530.977 7        45.731               
G28  25809655.317 6 135630715.228 6      -631.899 6        38.921               
G29  27810743.156 6 146146555.375 6       171.226 6        39.179               
G26  24343965.130 6 127928367.572 6       981.078 6        39.606               
> 2024 12 27 02 46 44.0000000  0  4                                             
G32  25084741.112 7 131821219.933 7      -529.360 7        45.683               
G28  25809776.308 6 135631343.172 6      -627.038 6        39.066               
G29  27810716.192 6 146146388.140 6       163.713 6        39.816               
G26  24343772.895 6 127927388.783 6       976.095 6        39.421               
> 2024 12 27 02 46 45.0000000  0  4                                             
G32  25084844.484 7 131821754.058 7      -534.147 7        45.567               
G28  25809890.491 6 135631971.173 6      -628.367 6        39.089               
G29  27810683.098 6 146146221.411 6       165.876 6        39.926               
G26  24343583.840 6 127926410.580 6       978.377 6        39.755               
> 2024 12 27 02 46 46.0000000  0  4                                             
G32  25084944.229 7 131822288.656 7      -533.645 7        45.772               
G28  25810021.328 6 135632599.209 6      -624.159 6        39.054               
G29  27810654.990 6 146146055.202 6       165.522 6        39.788               
G26  24343404.489 6 127925432.925 6       981.658 6        40.764               
> 2024 12 27 02 46 47.0000000  0  4                                             
G32  25085048.799 7 131822823.693 7      -537.180 7        44.959               
G28  25810141.372 6 135633227.276 6      -628.332 6        39.125               
G29  27810633.101 6 146145889.474 6       166.428 6        40.038               
G26  24343217.400 6 127924455.871 6       970.757 6        39.522               
> 2024 12 27 02 46 48.0000000  0  4                                             
G32  25085149.759 7 131823359.203 7      -534.378 7        45.151               
G28  25810262.024 6 135633855.410 6      -634.926 6        39.748               
G29  27810603.009 6 146145724.258 6       161.692 6        40.701               
G26  24343031.205 6 127923479.376 6       972.980 6        38.831               
> 2024 12 27 02 46 49.0000000  0  4                                             
G32  25085248.985 7 131823895.189 7      -531.307 7        45.313               
G28  25810386.481 6 135634483.568 6      -625.197 6        39.566               
G29  27810574.008 6 146145559.535 6       169.074 6        40.990               
G26  24342845.135 6 127922503.456 6       975.796 6        39.196               
> 2024 12 27 02 46 50.0000000  0  4                                             
G32  25085353.698 7 131824431.627 7      -535.591 7        44.895               
G28  25810499.842 6 135635111.755 6      -633.232 6        40.152               
G29  27810546.293 6 146145395.305 6       169.382 6        41.581               
G26  24342658.100 6 127921528.141 6       968.448 6        39.409               
> 2024 12 27 02 46 51.0000000  0  4                                             
G32  25085451.602 7 131824968.516 7      -537.762 7        44.570               
G28  25810625.283 6 135635739.952 6      -619.690 6        40.003               
G29  27810514.218 6 146145231.571 6       163.731 6        41.909               
G26  24342477.087 6 127920553.405 6       970.675 6        39.286               
> 2024 12 27 02 46 52.0000000  0  4                                             
G32  25085554.278 7 131825505.867 7      -539.186 7        44.356               
G28  25810740.342 6 135636368.209 6      -623.717 6        39.677               
G29  27810482.465 6 146145068.332 6       168.890 6        41.606               
G26  24342292.643 6 127919579.206 6       972.143 6        39.414               
> 2024 12 27 02 46 53.0000000  0  4                                             
G32  25085659.437 7 131826043.668 7      -540.919 7        44.124               
G28  25810864.728 6 135636996.454 6      -628.000 6        40.706               
G29  27810447.567 6 146144905.582 6       157.812 6        41.351               
G26  24342105.322 6 127918605.568 6       974.804 6        39.157               
> 2024 12 27 02 46 54.0000000  0  4                                             
G32  25085759.414 7 131826581.942 7      -540.886 7        43.892               
G28  25810979.536 6 135637624.770 6      -630.640 6        40.664               
G29  27810415.259 6 146144743.349 6       162.173 6        41.353               
G26  24341922.236 6 127917632.549 6       971.040 6        39.144               
> 2024 12 27 02 46 55.0000000  0  4                                             
G32  25085863.948 7 131827120.675 7      -535.178 7        44.240               
G28  25811105.066 6 135638253.098 6      -629.067 6        40.473               
G29  27810381.648 6 146144581.619 6       160.118 6        40.764               
G26  24341732.985 6 127916660.107 6       969.950 6        39.476               
> 2024 12 27 02 46 56.0000000  0  4                                             
G32  25085967.928 7 131827659.890 7      -540.975 7        44.267               
G28  25811225.307 6 135638881.512 6      -626.565 6        40.446               
G29  27810351.092 6 146144420.395 6       161.665 6        40.525               
G26  24341553.884 6 127915688.226 6       973.653 6        39.148               
> 2024 12 27 02 46 57.0000000  0  4                                             
G32  25086067.869 7 131828199.554 7      -535.055 7        44.314               
G28  25811340.884 6 135639509.935 6      -627.781 6        40.772               
G29  27810313.781 6 146144259.674 6       159.032 6        40.333               
G26  24341361.309 6 127914716.940 6       975.784 6        38.655               
> 2024 12 27 02 46 58.0000000  0  4                                             
G32  25086170.402 7 131828739.693 7      -535.801 7        44.202               
G28  25811468.058 6 135640138.404 6      -628.354 6        41.128               
G29  27810281.027 6 146144099.447 6       159.631 6        39.578               
G26  24341174.346 6 127913746.222 6       978.674 6        38.588               
> 2024 12 27 02 46 59.0000000  0  4                                             
G32  25086277.812 7 131829280.296 7      -543.789 7        45.057               
G28  25811579.489 6 135640766.893 6      -620.739 6        41.040               
G29  27810259.459 6 146143939.753 6       158.990 6        39.617               
G26  24340987.829 6 127912776.106 6       974.238 6        37.872               
> 2024 12 27 02 47 00.0000000  0  4                                             
G32  25086377.772 7 131829821.366 7      -539.998 7        44.759               
G28  25811701.195 6 135641395.431 6      -627.908 6        40.917               
G29  27810225.365 6 146143780.566 6       151.268 6        39.382               
G26  24340802.080 6 127911806.551 6       964.196 6        38.060               
> 2024 12 27 02 47 01.0000000  0  4                                             
G32  25086485.611 7 131830362.879 7      -542.288 7        44.893               
G28  25811817.200 6 135642023.997 6      -629.149 6        40.922               
G29  27810195.327 6 146143621.839 6       160.113 6        39.405               
G26  24340612.132 6 127910837.553 6       959.070 6        38.027               
> 2024 12 27 02 47 02.0000000  0  4                                             
G32  25086588.090 7 131830904.864 7      -536.274 7        45.310               
G28  25811941.408 6 135642652.578 6      -625.445 6        40.824               
G29  27810165.218 6 146143463.646 6       159.588 6        39.393               
G26  24340430.297 6 127909869.135 6       963.067 6        37.563               
> 2024 12 27 02 47 03.0000000  0  4                                             
G32  25086691.677 7 131831447.310 7      -545.502 7        45.053               
G28  25812061.309 6 135643281.223 6      -627.552 6        41.347               
G29  27810135.145 6 146143305.919 6       159.294 6        39.357               
G26  24340235.489 6 127908901.318 6       966.266 6        36.932               
> 2024 12 27 02 47 04.0000000  0  4                                             
G32  25086797.050 7 131831990.238 7      -544.188 7        45.067               
G28  25812177.565 6 135643909.904 6      -630.251 6        41.311               
G29  27810105.965 6 146143148.748 6       155.766 6        40.049               
G26  24340062.249 6 127907934.098 6       960.356 6        37.251               
> 2024 12 27 02 47 05.0000000  0  4                                             
G32  25086896.992 7 131832533.637 7      -545.559 7        44.858               
G28  25812296.037 6 135644538.634 6      -634.947 6        40.759               
G29  27810072.889 6 146142992.062 6       152.603 6        39.870               
G26  24339870.425 6 127906967.441 6       974.341 6        37.066               
> 2024 12 27 02 47 06.0000000  0  4                                             
G32  25087000.668 7 131833077.504 7      -547.318 7        44.530               
G28  25812420.923 6 135645167.383 6      -634.502 6        41.469               
G29  27810041.743 6 146142835.893 6       163.738 6        39.190               
G26  24339684.587 6 127906001.379 6       962.375 6        36.759               
> 2024 12 27 02 47 07.0000000  0  4                                             
G32  25087103.433 7 131833621.834 7      -545.963 7        45.046               
G28  25812536.250 6 135645796.204 6      -629.508 6        41.038               
G29  27810011.813 6 146142680.217 6       154.729 6        39.463               
G26  24339501.037 6 127905035.893 6       961.057 6        36.763               
> 2024 12 27 02 47 08.0000000  0  4                                             
G32  25087207.645 7 131834166.641 7      -544.485 7        44.934               
G28  25812660.243 6 135646425.053 6      -631.632 6        41.376               
G29  27809984.116 6 146142525.064 6       158.561 6        39.647               
G26  24339319.184 6 127904071.045 6       969.178 6        36.309               
> 2024 12 27 02 47 09.0000000  0  4                                             
G32  25087312.750 7 131834711.884 7      -541.186 7        44.390               
G28  25812775.480 6 135647053.933 6      -627.087 6        41.930               
G29  27809955.096 6 146142370.396 6       162.956 6        39.663               
G26  24339136.562 6 127903106.714 6       962.405 6        36.010               
> 2024 12 27 02 47 10.0000000  0  4                                             
G32  25087412.549 7 131835257.605 7      -547.792 7        44.721               
G28  25812895.256 7 135647682.843 7      -629.165 7        42.097               
G29  27809924.755 6 146142216.254 6       152.354 6        39.673               
G26  24338949.884 6 127902142.964 6       960.713 6        36.691               
> 2024 12 27 02 47 11.0000000  0  4                                             
G32  25087513.741 7 131835803.813 7      -549.106 7        44.471               
G28  25813015.140 6 135648311.782 6      -627.618 6        41.773               
G29  27809900.024 6 146142062.598 6       152.695 6        39.349               
G26  24338771.677 6 127901179.760 6       965.934 6        37.195               
> 2024 12 27 02 47 12.0000000  0  4                                             
G32  25087622.135 7 131836350.463 7      -550.562 7        44.205               
G28  25813140.259 7 135648940.796 7      -631.299 7        42.385               
G29  27809872.309 6 146141909.477 6       143.242 6        39.213               
G26  24338591.021 6 127900217.247 6       968.613 6        36.610               
> 2024 12 27 02 47 13.0000000  0  4                                             
G32  25087722.612 7 131836897.586 7      -547.118 7        44.291               
G28  25813258.784 7 135649569.822 7      -630.099 7        42.118               
G29  27809845.059 6 146141756.816 6       160.012 6        39.972               
G26  24338388.851 6 127899255.194 6       967.683 6        36.867               
> 2024 12 27 02 47 14.0000000  0  4                                             
G32  25087824.573 7 131837445.157 7      -550.726 7        44.081               
G28  25813373.914 7 135650198.879 7      -625.546 7        42.024               
G29  27809821.114 6 146141604.679 6       153.216 6        40.258               
G26  24338217.719 6 127898293.819 6       954.549 6        36.855               
> 2024 12 27 02 47 15.0000000  0  4                                             
G32  25087934.378 7 131837993.203 7      -549.536 7        44.130               
G28  25813493.761 6 135650827.971 6      -631.640 6        41.755               
G29  27809791.720 6 146141453.039 6       149.048 6        40.468               
G26  24338046.552 6 127897332.892 6       959.534 6        37.120               
> 2024 12 27 02 47 16.0000000  0  4                                             
G32  25088033.640 7 131838541.703 7      -553.165 7        43.756               
G28  25813617.022 6 135651457.088 6      -632.074 6        41.582               
G29  27809769.259 6 146141301.883 6       152.306 6        40.317               
G26  24337858.051 6 127896372.650 6       961.133 6        37.131               
> 2024 12 27 02 47 17.0000000  0  4                                             
G32  25088141.676 7 131839090.670 7      -550.746 7        43.842               
G28  25813736.530 6 135652086.248 6      -630.640 6        41.712               
G29  27809738.166 6 146141151.225 6       154.977 6        39.815               
G26  24337672.571 6 127895412.916 6       960.672 6        37.569               
> 2024 12 27 02 47 18.0000000  0  4                                             
G32  25088245.942 7 131839640.119 7      -550.802 7        43.580               
G28  25813851.607 6 135652715.447 6      -630.301 6        41.581               
G29  27809709.272 6 146141001.106 6       147.900 6        40.036               
G26  24337501.654 6 127894453.828 6       954.571 6        37.841               
> 2024 12 27 02 47 19.0000000  0  4                                             
G32  25088350.512 7 131840190.056 7      -549.419 7        43.769               
G28  25813970.346 6 135653344.708 6      -623.176 6        41.596               
G29  27809677.823 6 146140851.499 6       149.546 6        40.130               
G26  24337318.085 6 127893495.333 6       965.667 6        38.442               
> 2024 12 27 02 47 20.0000000  0  4                                             
G32  25088454.170 7 131840740.436 7      -555.768 7        43.170               
G28  25814086.191 6 135653973.994 6      -637.034 6        41.118               
G29  27809643.872 6 146140702.359 6       146.134 6        39.360               
G26  24337131.783 6 127892537.367 6       961.967 6        37.832               
> 2024 12 27 02 47 21.0000000  0  4                                             
G32  25088553.968 7 131841291.236 7      -545.843 7        42.823               
G28  25814208.880 6 135654603.280 6      -625.708 6        41.194               
G29  27809621.071 6 146140553.728 6       147.371 6        39.815               
G26  24336951.395 6 127891579.970 6       958.845 6        38.612               
> 2024 12 27 02 47 22.0000000  0  4                                             
G32  25088660.932 7 131841842.538 7      -549.947 7        42.933               
G28  25814329.960 6 135655232.624 6      -631.830 6        40.809               
G29  27809577.399 6 146140405.581 6       150.008 6        39.845               
G26  24336771.972 6 127890623.181 6       962.172 6        38.890               
> 2024 12 27 02 47 23.0000000  0  4                                             
G32  25088763.751 7 131842394.269 7      -551.421 7        42.958               
G28  25814445.287 6 135655861.972 6      -629.125 6        40.919               
G29  27809554.544 6 146140257.950 6       147.623 6        39.334               
G26  24336595.891 6 127889666.938 6       956.330 6        39.161               
> 2024 12 27 02 47 24.0000000  0  4                                             
G32  25088870.465 7 131842946.484 7      -554.433 7        42.959               
G28  25814565.099 6 135656491.373 6      -625.022 6        40.589               
G29  27809521.540 6 146140110.833 6       150.969 6        38.832               
G26  24336414.181 6 127888711.284 6       957.645 6        39.423               
> 2024 12 27 02 47 25.0000000  0  4                                             
G32  25088974.980 7 131843499.139 7      -553.557 7        43.272               
G28  25814679.586 6 135657120.794 6      -623.996 6        40.285               
G29  27809492.592 6 146139964.204 6       144.939 6        38.295               
G26  24336230.898 6 127887756.187 6       961.188 6        40.150               
> 2024 12 27 02 47 26.0000000  0  4                                             
G32  25089081.355 7 131844052.270 7      -550.046 7        43.250               
G28  25814804.722 6 135657750.267 6      -627.055 6        40.288               
G29  27809465.467 6 146139818.090 6       154.715 6        38.293               
G26  24336044.685 6 127886801.704 6       952.283 6        40.008               
> 2024 12 27 02 47 27.0000000  0  4                                             
G32  25089188.998 7 131844605.883 7      -554.257 7        43.659               
G28  25814924.409 6 135658379.768 6      -631.628 6        40.253               
G29  27809437.752 6 146139672.485 6       146.932 6        37.920               
G26  24335864.780 6 127885847.758 6       961.832 6        40.461               
> 2024 12 27 02 47 28.0000000  0  4                                             
G32  25089297.784 7 131845159.981 7      -558.200 7        43.771               
G28  25815047.384 6 135659009.340 6      -629.372 6        40.264               
G29  27809405.695 6 146139527.378 6       142.560 6        38.050               
G26  24335686.554 6 127884894.490 6       955.795 6        39.743               
> 2024 12 27 02 47 29.0000000  0  4                                             
G32  25089404.337 7 131845714.559 7      -556.388 7        44.139               
G28  25815165.980 6 135659638.978 6      -625.804 6        40.139               
G29  27809381.483 6 146139382.834 6       141.019 6        37.864               
G26  24335506.399 6 127883941.766 6       956.755 6        40.218               
> 2024 12 27 02 47 30.0000000  0  4                                             
G32  25089507.799 7 131846269.603 7      -552.054 7        44.439               
G28  25815286.007 6 135660268.609 6      -630.284 6        40.398               
G29  27809359.558 6 146139238.765 6       149.545 6        37.941               
G26  24335318.131 6 127882989.629 6       957.946 6        39.973               
> 2024 12 27 02 47 31.0000000  0  4                                             
G32  25089617.282 7 131846825.097 7      -550.892 7        44.379               
G28  25815406.551 6 135660898.317 6      -624.900 6        40.242               
G29  27809330.377 6 146139095.210 6       150.926 6        38.655               
G26  24335149.054 6 127882038.089 6       946.712 6        39.859               
> 2024 12 27 02 47 32.0000000  0  4                                             
G32  25089721.012 7 131847381.085 7      -558.061 7        44.859               
G28  25815522.986 6 135661528.059 6      -626.103 6        39.985               
G29  27809309.506 6 146138952.166 6       141.348 6        38.457               
G26  24334961.590 6 127881087.128 6       953.330 6        40.213               
> 2024 12 27 02 47 33.0000000  0  4                                             
G32  25089823.402 7 131847937.526 7      -556.771 7        44.904               
G28  25815649.874 6 135662157.816 6      -635.326 6        39.896               
G29  27809281.506 6 146138809.631 6       140.195 6        38.861               
G26  24334780.595 6 127880136.709 6       951.642 6        40.860               
> 2024 12 27 02 47 34.0000000  0  4                                             
G32  25089930.133 7 131848494.456 7      -558.953 7        44.334               
G28  25815769.096 6 135662787.646 6      -635.867 6        40.176               
G29  27809259.080 6 146138667.604 6       140.261 6        39.655               
G26  24334607.426 6 127879186.912 6       946.574 6        41.332               
> 2024 12 27 02 47 35.0000000  0  4                                             
G32  25090035.757 7 131849051.850 7      -556.457 7        44.455               
G28  25815881.242 6 135663417.512 6      -626.789 6        39.911               
G29  27809230.650 6 146138526.092 6       133.851 6        39.223               
G26  24334421.070 6 127878237.705 6       944.849 6        40.998               
> 2024 12 27 02 47 36.0000000  0  4                                             
G32  25090140.916 7 131849609.727 7      -555.356 7        44.274               
G28  25816004.127 6 135664047.437 6      -632.615 6        40.193               
G29  27809204.294 6 146138385.092 6       144.439 6        39.226               
G26  24334239.699 6 127877289.097 6       950.377 6        41.534               
> 2024 12 27 02 47 37.0000000  0  4                                             
G32  25090250.007 7 131850168.082 7      -558.970 7        44.055               
G28  25816122.741 6 135664677.399 6      -627.873 6        40.223               
G29  27809176.614 6 146138244.606 6       142.766 6        39.322               
G26  24334058.150 6 127876341.078 6       948.030 6        40.807               
> 2024 12 27 02 47 38.0000000  0  4                                             
G32  25090355.666 7 131850726.887 7      -560.330 7        44.522               
G28  25816241.302 6 135665307.395 6      -626.221 6        40.069               
G29  27809156.476 6 146138104.621 6       137.840 6        39.949               
G26  24333878.602 6 127875393.622 6       948.533 6        41.346               
> 2024 12 27 02 47 39.0000000  0  4                                             
G32  25090462.845 7 131851286.161 7      -557.047 7        44.300               
G28  25816363.491 6 135665937.404 6      -619.149 6        39.964               
G29  27809133.568 6 146137965.130 6       141.907 6        40.450               
G26  24333696.946 6 127874446.749 6       945.433 6        41.468               
> 2024 12 27 02 47 40.0000000  0  4                                             
G32  25090567.575 7 131851845.917 7      -560.433 7        43.865               
G28  25816482.320 6 135666567.507 6      -626.238 6        40.158               
G29  27809101.404 6 146137826.163 6       139.973 6        41.178               
G26  24333518.488 6 127873500.469 6       947.626 6        41.658               
> 2024 12 27 02 47 41.0000000  0  4                                             
G32  25090681.168 7 131852406.114 7      -560.112 7        44.659               
G28  25816600.988 6 135667197.600 6      -629.141 6        40.258               
G29  27809081.766 6 146137687.669 6       141.754 6        41.266               
G26  24333338.171 6 127872554.738 6       947.114 6        41.677               
> 2024 12 27 02 47 42.0000000  0  4                                             
G32  25090787.757 7 131852966.773 7      -560.361 7        44.999               
G28  25816719.388 6 135667827.722 6      -633.799 6        40.326               
G29  27809054.355 6 146137549.685 6       135.537 6        41.004               
G26  24333160.714 6 127871609.585 6       947.316 6        41.619               
> 2024 12 27 02 47 43.0000000  0  4                                             
G32  25090894.935 7 131853527.874 7      -560.642 7        44.660               
G28  25816840.933 6 135668457.842 6      -633.581 6        40.413               
G29  27809028.802 6 146137412.192 6       138.702 6        40.616               
G26  24332978.093 6 127870665.006 6       941.106 6        41.284               
> 2024 12 27 02 47 44.0000000  0  4                                             
G32  25091001.703 7 131854089.424 7      -560.297 7        44.810               
G28  25816963.300 6 135669088.005 6      -622.693 6        40.184               
G29  27808998.210 6 146137275.182 6       131.581 6        40.205               
G26  24332802.047 6 127869720.962 6       942.351 6        41.184               
> 2024 12 27 02 47 45.0000000  0  4                                             
G32  25091109.346 7 131854651.451 7      -563.605 7        44.952               
G28  25817084.595 6 135669718.215 6      -627.975 6        40.366               
G29  27808967.815 6 146137138.693 6       135.369 6        39.136               
G26  24332626.841 6 127868777.508 6       940.214 6        41.543               
> 2024 12 27 02 47 46.0000000  0  4                                             
G32  25091217.060 7 131855213.968 7      -562.029 7        44.799               
G28  25817208.767 6 135670348.462 6      -632.597 6        40.201               
G29  27808942.477 6 146137002.717 6       136.995 6        38.069               
G26  24332446.096 7 127867834.664 7       942.334 7        42.524               
> 2024 12 27 02 47 47.0000000  0  4                                             
G32  25091321.987 7 131855776.930 7      -562.155 7        45.320               
G28  25817323.022 6 135670978.755 6      -630.998 6        40.091               
G29  27808899.537 6 146136867.253 6       128.889 6        38.084               
G26  24332264.547 6 127866892.368 6       939.536 6        41.709               
> 2024 12 27 02 47 48.0000000  0  4                                             
G32  25091426.360 7 131856340.364 7      -561.284 7        45.271               
G28  25817444.620 6 135671609.046 6      -632.094 6        40.483               
G29  27808868.660 6 146136732.287 6       132.543 6        37.336               
G26  24332089.520 6 127865950.678 6       945.594 6        41.653               
> 2024 12 27 02 47 49.0000000  0  4                                             
G32  25091529.679 7 131856904.255 7      -563.319 7        44.575               
G28  25817564.271 6 135672239.406 6      -629.584 6        40.384               
G29  27808854.329 6 146136597.862 6       134.734 6        36.179               
G26  24331910.615 7 127865009.546 7       944.283 7        42.292               
> 2024 12 27 02 47 50.0000000  0  4                                             
G32  25091636.071 7 131857468.638 7      -565.352 7        44.604               
G28  25817687.496 6 135672869.817 6      -633.628 6        40.674               
G29  27808831.993 6 146136463.917 6       133.239 6        36.770               
G26  24331727.440 6 127864069.024 6       944.180 6        41.970               
> 2024 12 27 02 47 51.0000000  0  4                                             
G32  25091747.270 7 131858033.461 7      -562.617 7        44.360               
G28  25817802.305 6 135673500.240 6      -626.970 6        40.793               
G29  27808803.045 6 146136330.465 6       134.812 6        37.034               
G26  24331553.002 6 127863129.055 6       940.908 6        41.857               
> 2024 12 27 02 47 52.0000000  0  4                                             
G32  25091854.216 7 131858598.737 7      -560.665 7        44.645               
G28  25817923.028 6 135674130.678 6      -628.171 6        40.918               
G29  27808784.657 6 146136197.529 6       131.016 6        37.624               
G26  24331370.649 6 127862189.642 6       936.446 6        41.435               
> 2024 12 27 02 47 53.0000000  0  4                                             
G32  25091963.467 7 131859164.468 7      -566.968 7        44.614               
G28  25818048.111 6 135674761.139 6      -632.489 6        40.933               
G29  27808772.292 6 146136065.061 6       124.184 6        38.130               
G26  24331191.798 6 127861250.796 6       941.049 6        41.728               
> 2024 12 27 02 47 54.0000000  0  4                                             
G32  25092072.808 7 131859730.664 7      -566.827 7        44.637               
G28  25818169.602 6 135675391.649 6      -628.871 6        41.096               
G29  27808752.082 6 146135933.091 6       142.630 6        39.159               
G26  24331012.161 6 127860312.545 6       941.600 6        41.348               
> 2024 12 27 02 47 55.0000000  0  4                                             
G32  25092183.953 7 131860297.304 7      -564.330 7        45.030               
G28  25818292.559 6 135676022.161 6      -634.941 6        40.957               
G29  27808724.224 6 146135801.591 6       138.628 6        39.235               
G26  24330835.257 6 127859374.818 6       943.066 6        40.762               
> 2024 12 27 02 47 56.0000000  0  4                                             
G32  25092291.471 7 131860864.423 7      -565.268 7        44.966               
G28  25818405.313 6 135676652.725 6      -629.817 6        41.203               
G29  27808696.295 6 146135670.632 6       130.342 6        40.033               
G26  24330657.443 6 127858437.712 6       935.378 6        40.930               
> 2024 12 27 02 47 57.0000000  0  4                                             
G32  25092401.348 7 131861432.018 7      -567.373 7        45.410               
G28  25818530.985 6 135677283.332 6      -628.052 6        41.005               
G29  27808672.529 6 146135540.162 6       124.894 6        40.032               
G26  24330483.935 6 127857501.210 6       940.011 6        41.188               
> 2024 12 27 02 47 58.0000000  0  4                                             
G32  25092507.097 7 131862000.143 7      -569.903 7        45.800               
G28  25818647.313 6 135677914.035 6      -627.712 6        41.257               
G29  27808647.370 6 146135410.274 6       123.614 6        39.715               
G26  24330299.008 6 127856565.321 6       937.004 6        40.838               
> 2024 12 27 02 47 59.0000000  0  4                                             
G32  25092616.115 7 131862568.750 7      -570.177 7        45.250               
G28  25818768.822 6 135678544.809 6      -631.531 6        41.694               
G29  27808628.250 6 146135280.899 6       133.399 6        39.603               
G26  24330117.888 6 127855630.038 6       938.732 6        40.292               
> 2024 12 27 02 48 00.0000000  0  4                                             
G32  25092724.902 7 131863137.827 7      -568.596 7        45.373               
G28  25818884.613 6 135679175.608 6      -635.953 6        41.858               
G29  27808599.517 6 146135152.050 6       130.787 6        39.322               
G26  24329935.516 6 127854695.365 6       929.947 6        40.645               
> 2024 12 27 02 48 01.0000000  0  4                                             
G32  25092826.452 7 131863707.375 7      -569.279 7        44.733               
G28  25819007.552 6 135679806.458 6      -633.995 6        41.798               
G29  27808566.941 6 146135023.716 6       133.660 6        39.183               
G26  24329764.706 6 127853761.202 6       944.029 6        40.676               
> 2024 12 27 02 48 02.0000000  0  4                                             
G32  25092937.561 7 131864277.392 7      -572.607 7        44.737               
G28  25819126.542 6 135680437.336 6      -624.309 6        41.829               
G29  27808538.726 6 146134895.891 6       120.876 6        38.866               
G26  24329582.550 6 127852827.681 6       929.640 6        40.226               
> 2024 12 27 02 48 03.0000000  0  4                                             
G32  25093042.399 7 131864847.882 7      -569.550 7        44.981               
G28  25819247.087 6 135681068.268 6      -632.854 6        41.507               
G29  27808517.087 6 146134768.566 6       123.072 6        38.783               
G26  24329401.268 6 127851894.738 6       934.086 6        40.633               
> 2024 12 27 02 48 04.0000000  0  4                                             
G32  25093151.293 7 131865418.853 7      -572.037 7        44.625               
G28  25819365.773 6 135681699.242 6      -628.569 6        41.768               
G29  27808482.063 6 146134641.784 6       115.693 6        37.949               
G26  24329223.722 6 127850962.402 6       935.984 6        40.907               
> 2024 12 27 02 48 05.0000000  0  4                                             
G32  25093258.829 7 131865990.272 7      -570.922 7        44.026               
G28  25819487.514 6 135682330.225 6      -627.619 6        41.483               
G29  27808461.121 6 146134515.462 6       128.112 6        37.968               
G26  24329050.982 6 127850030.601 6       936.651 6        40.099               
> 2024 12 27 02 48 06.0000000  0  4                                             
G32  25093371.939 7 131866562.153 7      -574.464 7        44.145               
G28  25819606.379 6 135682961.262 6      -634.983 6        41.252               
G29  27808436.944 6 146134389.669 6       124.193 6        38.037               
G26  24328870.183 6 127849099.398 6       930.994 6        40.269               
> 2024 12 27 02 48 07.0000000  0  4                                             
G32  25093478.189 7 131867134.522 7      -569.060 7        44.755               
G28  25819723.564 6 135683592.353 6      -631.838 6        41.317               
G29  27808412.499 6 146134264.395 6       118.449 6        37.766               
G26  24328698.944 6 127848168.785 6       930.104 6        40.649               
> 2024 12 27 02 48 08.0000000  0  4                                             
G32  25093587.225 7 131867707.392 7      -572.676 7        44.696               
G28  25819842.161 6 135684223.503 6      -629.585 6        40.546               
G29  27808386.446 6 146134139.672 6       125.646 6        37.531               
G26  24328519.968 6 127847238.789 6       926.419 6        40.930               
> 2024 12 27 02 48 09.0000000  0  4                                             
G32  25093696.441 7 131868280.715 7      -574.569 7        44.709               
G28  25819964.778 6 135684854.668 6      -630.229 6        41.017               
G29  27808363.324 6 146134015.395 6       120.863 6        38.667               
G26  24328346.299 6 127846309.321 6       936.609 6        41.184               
> 2024 12 27 02 48 10.0000000  0  4                                             
G32  25093805.442 7 131868854.512 7      -574.602 7        44.823               
G28  25820084.304 6 135685485.894 6      -630.984 6        40.734               
G29  27808347.295 6 146133891.675 6       119.773 6        38.460               
G26  24328171.147 6 127845380.491 6       932.985 6        41.187               
> 2024 12 27 02 48 11.0000000  0  4                                             
G32  25093920.572 7 131869428.734 7      -570.794 7        44.858               
G28  25820205.688 6 135686117.116 6      -628.306 6        40.668               
G29  27808319.223 6 146133768.409 6       129.393 6        38.269               
G26  24327993.707 6 127844452.187 6       921.683 6        41.376               
> 2024 12 27 02 48 12.0000000  0  4                                             
G32  25094026.500 7 131870003.433 7      -575.465 7        44.474               
G28  25820319.139 6 135686748.358 6      -638.740 6        40.284               
G29  27808300.550 6 146133645.633 6       123.184 6        38.336               
G26  24327819.860 6 127843524.446 6       925.569 6        41.985               
> 2024 12 27 02 48 13.0000000  0  4                                             
G32  25094137.806 7 131870578.579 7      -571.910 7        44.754               
G28  25820439.683 6 135687379.639 6      -626.368 6        39.814               
G29  27808277.445 6 146133523.382 6       112.187 6        38.630               
G26  24327647.781 6 127842597.301 6       930.147 6        41.499               
> 2024 12 27 02 48 14.0000000  0  4                                             
G32  25094247.021 7 131871154.217 7      -578.675 7        44.993               
G28  25820562.836 6 135688010.954 6      -627.466 6        40.077               
G29  27808254.001 6 146133401.652 6       124.028 6        38.852               
G26  24327469.663 6 127841670.738 6       920.874 6        41.832               
> 2024 12 27 02 48 15.0000000  0  4                                             
G32  25094354.039 7 131871730.309 7      -571.528 7        44.815               
G28  25820680.004 6 135688642.316 6      -633.580 6        40.593               
G29  27808231.611 6 146133280.406 6       121.589 6        38.386               
G26  24327290.579 6 127840744.744 6       924.782 6        41.538               
> 2024 12 27 02 48 16.0000000  0  4                                             
G32  25094462.843 7 131872306.879 7      -575.125 7        44.772               
G28  25820801.459 6 135689273.733 6      -634.213 6        39.795               
G29  27808203.682 6 146133159.665 6       121.788 6        38.720               
G26  24327113.283 6 127839819.341 6       920.528 6        41.714               
> 2024 12 27 02 48 17.0000000  0  4                                             
G32  25094571.558 7 131872883.917 7      -575.588 7        44.120               
G28  25820920.038 6 135689905.165 6      -636.414 6        40.054               
G29  27808187.314 6 146133039.454 6       115.907 6        38.377               
G26  24326940.239 6 127838894.528 6       920.571 6        41.369               
> 2024 12 27 02 48 18.0000000  0  4                                             
G32  25094679.184 7 131873461.445 7      -582.119 7        44.508               
G28  25821038.027 6 135690536.659 6      -630.156 6        39.452               
G29  27808160.653 6 146132919.748 6       118.117 6        38.826               
G26  24326759.994 6 127837970.297 6       928.493 6        41.100               
> 2024 12 27 02 48 19.0000000  0  4                                             
G32  25094791.079 7 131874039.428 7      -579.758 7        43.983               
G28  25821162.985 6 135691168.198 6      -633.289 6        39.288               
G29  27808140.569 6 146132800.553 6       117.902 6        38.943               
G26  24326588.845 6 127837046.635 6       921.398 6        41.325               
